{"timestamp":"2024-01-18T19:29:16.122840Z","level":"DEBUG","fields":{"message":"Received packet","driver":"udp_driver","json_packet":"{\"header\":{\"component_id\":1,\"sequence\":18,\"system_id\":1},\"msg\":{\"arguments\":[0,0,0,16,0,128,0,0,0,192,59,129,255,192,59,129,255,0,0,0,0,0,0,0,0,0,0,0,0,0,0,0,0,0,0,0,0,0,0,0],\"destination_component\":0,\"destination_system\":0,\"event_time_boot_ms\":9422,\"id\":27825120,\"log_levels\":136,\"sequence\":9,\"type\":\"EVENT\"},\"protocol_version\":{\"type\":\"V2\"}}"},"target":"network"}
{"timestamp":"2024-01-18T19:29:16.123064Z","level":"INFO","fields":{"message":"Received message 30 and ignored"},"target":"mavlink_network_node"}
{"timestamp":"2024-01-18T19:29:16.123118Z","level":"DEBUG","fields":{"message":"Received packet","driver":"udp_driver","json_packet":"{\"header\":{\"component_id\":1,\"sequence\":19,\"system_id\":1},\"msg\":{\"arguments\":[60,0,126,0,20,0,0,0,0,0,0,0,0,0,0,0,0,0,0,0,0,0,0,0,0,0,0,0,0,0,0,0,0,0,0,0,0,0,0,0],\"destination_component\":0,\"destination_system\":0,\"event_time_boot_ms\":9422,\"id\":30612409,\"log_levels\":51,\"sequence\":10,\"type\":\"EVENT\"},\"protocol_version\":{\"type\":\"V2\"}}"},"target":"network"}
{"timestamp":"2024-01-18T19:29:16.123213Z","level":"INFO","fields":{"message":"Received message 30 and ignored"},"target":"mavlink_network_node"}
{"timestamp":"2024-01-18T19:29:16.123260Z","level":"DEBUG","fields":{"message":"Received packet","driver":"udp_driver","json_packet":"{\"header\":{\"component_id\":1,\"sequence\":20,\"system_id\":1},\"msg\":{\"arguments\":[56,0,0,0,20,0,0,0,0,0,0,0,0,0,0,0,0,0,0,0,0,0,0,0,0,0,0,0,0,0,0,0,0,0,0,0,0,0,0,0],\"destination_component\":0,\"destination_system\":0,\"event_time_boot_ms\":9422,\"id\":26788467,\"log_levels\":51,\"sequence\":11,\"type\":\"EVENT\"},\"protocol_version\":{\"type\":\"V2\"}}"},"target":"network"}
{"timestamp":"2024-01-18T19:29:16.123347Z","level":"INFO","fields":{"message":"Received message 30 and ignored"},"target":"mavlink_network_node"}
{"timestamp":"2024-01-18T19:29:16.123397Z","level":"DEBUG","fields":{"message":"Received packet","driver":"udp_driver","json_packet":"{\"header\":{\"component_id\":1,\"sequence\":21,\"system_id\":1},\"msg\":{\"arguments\":[8,0,0,0,20,0,0,0,0,0,0,0,0,0,0,0,0,0,0,0,0,0,0,0,0,0,0,0,0,0,0,0,0,0,0,0,0,0,0,0],\"destination_component\":0,\"destination_system\":0,\"event_time_boot_ms\":9422,\"id\":17154777,\"log_levels\":102,\"sequence\":12,\"type\":\"EVENT\"},\"protocol_version\":{\"type\":\"V2\"}}"},"target":"network"}
{"timestamp":"2024-01-18T19:29:16.123484Z","level":"INFO","fields":{"message":"Received message 30 and ignored"},"target":"mavlink_network_node"}
{"timestamp":"2024-01-18T19:29:16.123526Z","level":"DEBUG","fields":{"message":"Received packet","driver":"udp_driver","json_packet":"{\"header\":{\"component_id\":1,\"sequence\":22,\"system_id\":1},\"msg\":{\"arguments\":[0,64,0,0,20,0,0,0,0,0,0,0,0,0,0,0,0,0,0,0,0,0,0,0,0,0,0,0,0,0,0,0,0,0,0,0,0,0,0,0],\"destination_component\":0,\"destination_system\":0,\"event_time_boot_ms\":9422,\"id\":19865031,\"log_levels\":51,\"sequence\":13,\"type\":\"EVENT\"},\"protocol_version\":{\"type\":\"V2\"}}"},"target":"network"}
{"timestamp":"2024-01-18T19:29:16.123626Z","level":"INFO","fields":{"message":"Received message 30 and ignored"},"target":"mavlink_network_node"}
{"timestamp":"2024-01-18T19:29:16.123671Z","level":"DEBUG","fields":{"message":"Received packet","driver":"udp_driver","json_packet":"{\"header\":{\"component_id\":1,\"sequence\":23,\"system_id\":1},\"msg\":{\"arguments\":[32,0,0,0,20,0,0,0,0,0,0,0,0,0,0,0,0,0,0,0,0,0,0,0,0,0,0,0,0,0,0,0,0,0,0,0,0,0,0,0],\"destination_component\":0,\"destination_system\":0,\"event_time_boot_ms\":9422,\"id\":16856624,\"log_levels\":102,\"sequence\":14,\"type\":\"EVENT\"},\"protocol_version\":{\"type\":\"V2\"}}"},"target":"network"}
{"timestamp":"2024-01-18T19:29:16.123749Z","level":"INFO","fields":{"message":"Received message 30 and ignored"},"target":"mavlink_network_node"}
{"timestamp":"2024-01-18T19:29:16.123789Z","level":"DEBUG","fields":{"message":"Received packet","driver":"udp_driver","json_packet":"{\"header\":{\"component_id\":1,\"sequence\":24,\"system_id\":1},\"msg\":{\"arguments\":[255,255,255,255,7,0,0,0,0,0,0,0,0,0,0,0,0,0,0,0,0,0,0,0,0,0,0,0,0,0,0,0,0,0,0,0,0,0,0,0],\"destination_component\":0,\"destination_system\":0,\"event_time_boot_ms\":9422,\"id\":17231145,\"log_levels\":68,\"sequence\":15,\"type\":\"EVENT\"},\"protocol_version\":{\"type\":\"V2\"}}"},"target":"network"}
{"timestamp":"2024-01-18T19:29:16.123866Z","level":"INFO","fields":{"message":"Received message 30 and ignored"},"target":"mavlink_network_node"}
{"timestamp":"2024-01-18T19:29:16.123908Z","level":"DEBUG","fields":{"message":"Received packet","driver":"udp_driver","json_packet":"{\"header\":{\"component_id\":1,\"sequence\":25,\"system_id\":1},\"msg\":{\"arguments\":[0,2,16,2,40,0,0,0,0,0,0,0,0,0,0,0,0,0,0,0,0,0,0,0,0,0,0,0,0,0,0,0,0,0,0,0,0,0,0,0],\"destination_component\":0,\"destination_system\":0,\"event_time_boot_ms\":9422,\"id\":18691879,\"log_levels\":136,\"sequence\":16,\"type\":\"EVENT\"},\"protocol_version\":{\"type\":\"V2\"}}"},"target":"network"}
{"timestamp":"2024-01-18T19:29:16.123986Z","level":"INFO","fields":{"message":"Received message 30 and ignored"},"target":"mavlink_network_node"}
{"timestamp":"2024-01-18T19:29:16.186005Z","level":"DEBUG","fields":{"message":"close","time.busy":"30.5ms","time.idle":"21.9µs"},"target":"network","span":{"driver":"lora_driver","name":"Prepare For RX"},"spans":[]}
{"timestamp":"2024-01-18T19:29:16.186347Z","level":"DEBUG","fields":{"message":"Driver instance created","driver":"lora_driver"},"target":"network"}
{"timestamp":"2024-01-18T19:29:16.186540Z","level":"DEBUG","fields":{"message":"Network interface created","driver":"lora_driver"},"target":"network"}
{"timestamp":"2024-01-18T19:29:16.186735Z","level":"INFO","fields":{"message":"Running network interface","driver":"lora_driver"},"target":"network"}
{"timestamp":"2024-01-18T19:29:16.218440Z","level":"DEBUG","fields":{"message":"close","time.busy":"31.5ms","time.idle":"7.30µs"},"target":"network","span":{"driver":"lora_driver","name":"Prepare For RX"},"spans":[{"driver":"lora_driver","name":"Receiving"}]}
{"timestamp":"2024-01-18T19:29:16.690509Z","level":"DEBUG","fields":{"message":"Received packet","driver":"lora_driver","rssi":-59,"json_packet":"{\"header\":{\"component_id\":190,\"sequence\":199,\"system_id\":255},\"msg\":{\"autopilot\":{\"type\":\"MAV_AUTOPILOT_INVALID\"},\"base_mode\":{\"bits\":192},\"custom_mode\":0,\"mavlink_version\":3,\"mavtype\":{\"type\":\"MAV_TYPE_GCS\"},\"system_status\":{\"type\":\"MAV_STATE_ACTIVE\"},\"type\":\"HEARTBEAT\"},\"protocol_version\":{\"type\":\"V2\"}}"},"target":"network","span":{"driver":"lora_driver","name":"Receiving"},"spans":[{"driver":"lora_driver","name":"Receiving"}]}
{"timestamp":"2024-01-18T19:29:16.690953Z","level":"DEBUG","fields":{"message":"close","time.busy":"504ms","time.idle":"16.7µs"},"target":"network","span":{"driver":"lora_driver","name":"Receiving"},"spans":[]}
{"timestamp":"2024-01-18T19:29:16.691168Z","level":"INFO","fields":{"message":"Listen initiated","driver":"lora_driver"},"target":"network"}
{"timestamp":"2024-01-18T19:29:16.691349Z","level":"DEBUG","fields":{"message":"Send to main","driver":"lora_driver"},"target":"network"}
{"timestamp":"2024-01-18T19:29:16.691434Z","level":"DEBUG","fields":{"message":"Sending packet","driver":"udp_driver","json_packet":"{\"header\":{\"component_id\":190,\"sequence\":199,\"system_id\":255},\"msg\":{\"autopilot\":{\"type\":\"MAV_AUTOPILOT_INVALID\"},\"base_mode\":{\"bits\":192},\"custom_mode\":0,\"mavlink_version\":3,\"mavtype\":{\"type\":\"MAV_TYPE_GCS\"},\"system_status\":{\"type\":\"MAV_STATE_ACTIVE\"},\"type\":\"HEARTBEAT\"},\"protocol_version\":{\"type\":\"V2\"}}"},"target":"network"}
{"timestamp":"2024-01-18T19:29:16.722925Z","level":"DEBUG","fields":{"message":"close","time.busy":"31.5ms","time.idle":"8.08µs"},"target":"network","span":{"driver":"lora_driver","name":"Prepare For RX"},"spans":[{"driver":"lora_driver","name":"Receiving"}]}
{"timestamp":"2024-01-18T19:29:16.848436Z","level":"DEBUG","fields":{"message":"Received packet","driver":"udp_driver","json_packet":"{\"header\":{\"component_id\":1,\"sequence\":26,\"system_id\":1},\"msg\":{\"pitch\":-0.003880994161590934,\"pitchspeed\":0.0008151873480528593,\"roll\":0.010437192395329475,\"rollspeed\":-0.00019997544586658478,\"time_boot_ms\":10152,\"type\":\"ATTITUDE\",\"yaw\":-2.6680781841278076,\"yawspeed\":-0.002365985419601202},\"protocol_version\":{\"type\":\"V2\"}}"},"target":"network"}
{"timestamp":"2024-01-18T19:29:16.848559Z","level":"INFO","fields":{"message":"Received message 30 and ignored"},"target":"mavlink_network_node"}
{"timestamp":"2024-01-18T19:29:16.871067Z","level":"DEBUG","fields":{"message":"Received packet","driver":"udp_driver","json_packet":"{\"header\":{\"component_id\":1,\"sequence\":27,\"system_id\":1},\"msg\":{\"autopilot\":{\"type\":\"MAV_AUTOPILOT_PX4\"},\"base_mode\":{\"bits\":29},\"custom_mode\":50593792,\"mavlink_version\":3,\"mavtype\":{\"type\":\"MAV_TYPE_QUADROTOR\"},\"system_status\":{\"type\":\"MAV_STATE_STANDBY\"},\"type\":\"HEARTBEAT\"},\"protocol_version\":{\"type\":\"V2\"}}"},"target":"network"}
{"timestamp":"2024-01-18T19:29:16.871166Z","level":"DEBUG","fields":{"message":"Send to network","driver":"lora_driver"},"target":"main"}
{"timestamp":"2024-01-18T19:29:16.903358Z","level":"DEBUG","fields":{"message":"Received packet","driver":"udp_driver","json_packet":"{\"header\":{\"component_id\":1,\"sequence\":28,\"system_id\":1},\"msg\":{\"altitude_amsl\":186.18577575683594,\"altitude_local\":-0.19023925065994263,\"altitude_monotonic\":186.18577575683594,\"altitude_relative\":-0.19023925065994263,\"altitude_terrain\":null,\"bottom_clearance\":null,\"time_usec\":10209897,\"type\":\"ALTITUDE\"},\"protocol_version\":{\"type\":\"V2\"}}"},"target":"network"}
{"timestamp":"2024-01-18T19:29:16.903456Z","level":"INFO","fields":{"message":"Received message 30 and ignored"},"target":"mavlink_network_node"}
{"timestamp":"2024-01-18T19:29:16.903498Z","level":"DEBUG","fields":{"message":"Received packet","driver":"udp_driver","json_packet":"{\"header\":{\"component_id\":1,\"sequence\":29,\"system_id\":1},\"msg\":{\"airspeed\":0.0,\"alt\":186.18577575683594,\"climb\":0.0021882946603000164,\"groundspeed\":0.0005883523263037205,\"heading\":207,\"throttle\":0,\"type\":\"VFR_HUD\"},\"protocol_version\":{\"type\":\"V2\"}}"},"target":"network"}
{"timestamp":"2024-01-18T19:29:16.903569Z","level":"INFO","fields":{"message":"Received message 30 and ignored"},"target":"mavlink_network_node"}
{"timestamp":"2024-01-18T19:29:16.903648Z","level":"DEBUG","fields":{"message":"Received packet","driver":"udp_driver","json_packet":"{\"header\":{\"component_id\":1,\"sequence\":30,\"system_id\":1},\"msg\":{\"messages_lost\":1,\"messages_received\":12,\"messages_sent\":12,\"rx_buf\":0,\"rx_overflows\":0,\"rx_parse_err\":0,\"rx_rate\":251,\"timestamp\":10209947,\"tx_buf\":0,\"tx_overflows\":0,\"tx_rate\":312,\"type\":\"LINK_NODE_STATUS\"},\"protocol_version\":{\"type\":\"V2\"}}"},"target":"network"}
{"timestamp":"2024-01-18T19:29:16.903728Z","level":"DEBUG","fields":{"message":"Send to network","driver":"lora_driver"},"target":"main"}
{"timestamp":"2024-01-18T19:29:16.970060Z","level":"DEBUG","fields":{"message":"Received packet","driver":"udp_driver","json_packet":"{\"header\":{\"component_id\":1,\"sequence\":31,\"system_id\":1},\"msg\":{\"pitch\":-0.00387049512937665,\"pitchspeed\":-0.00025357166305184364,\"roll\":0.010444567538797855,\"rollspeed\":0.000036679208278656006,\"time_boot_ms\":10275,\"type\":\"ATTITUDE\",\"yaw\":-2.6678709983825684,\"yawspeed\":-0.0025733555667102337},\"protocol_version\":{\"type\":\"V2\"}}"},"target":"network"}
{"timestamp":"2024-01-18T19:29:16.970166Z","level":"INFO","fields":{"message":"Received message 30 and ignored"},"target":"mavlink_network_node"}
{"timestamp":"2024-01-18T19:29:17.090323Z","level":"DEBUG","fields":{"message":"Received packet","driver":"udp_driver","json_packet":"{\"header\":{\"component_id\":1,\"sequence\":32,\"system_id\":1},\"msg\":{\"pitch\":-0.003877616487443447,\"pitchspeed\":6.994698196649551e-6,\"roll\":0.010448714718222618,\"rollspeed\":0.000025455839931964874,\"time_boot_ms\":10394,\"type\":\"ATTITUDE\",\"yaw\":-2.6681735515594482,\"yawspeed\":-0.002493114210665226},\"protocol_version\":{\"type\":\"V2\"}}"},"target":"network"}
{"timestamp":"2024-01-18T19:29:17.090421Z","level":"INFO","fields":{"message":"Received message 30 and ignored"},"target":"mavlink_network_node"}
{"timestamp":"2024-01-18T19:29:17.211455Z","level":"DEBUG","fields":{"message":"Received packet","driver":"udp_driver","json_packet":"{\"header\":{\"component_id\":1,\"sequence\":33,\"system_id\":1},\"msg\":{\"pitch\":-0.003883001394569874,\"pitchspeed\":0.00032019359059631824,\"roll\":0.010457906872034073,\"rollspeed\":0.0008760197088122368,\"time_boot_ms\":10513,\"type\":\"ATTITUDE\",\"yaw\":-2.6684093475341797,\"yawspeed\":-0.00205438444390893},\"protocol_version\":{\"type\":\"V2\"}}"},"target":"network"}
{"timestamp":"2024-01-18T19:29:17.211549Z","level":"INFO","fields":{"message":"Received message 30 and ignored"},"target":"mavlink_network_node"}
{"timestamp":"2024-01-18T19:29:17.242911Z","level":"DEBUG","fields":{"message":"close","time.busy":"551ms","time.idle":"18.1µs"},"target":"network","span":{"driver":"lora_driver","name":"Receiving"},"spans":[]}
{"timestamp":"2024-01-18T19:29:17.243002Z","level":"INFO","fields":{"message":"Transmit initiated","driver":"lora_driver"},"target":"network"}
{"timestamp":"2024-01-18T19:29:17.257246Z","level":"DEBUG","fields":{"message":"close","time.busy":"13.9ms","time.idle":"9.06µs"},"target":"network","span":{"driver":"lora_driver","name":"Prepare For TX"},"spans":[{"driver":"lora_driver","name":"Transmitting"}]}
{"timestamp":"2024-01-18T19:29:17.343396Z","level":"DEBUG","fields":{"message":"Received packet","driver":"udp_driver","json_packet":"{\"header\":{\"component_id\":1,\"sequence\":34,\"system_id\":1},\"msg\":{\"pitch\":-0.0038947155699133873,\"pitchspeed\":0.0004293164238333702,\"roll\":0.010464107617735863,\"rollspeed\":-0.0007249303162097931,\"time_boot_ms\":10647,\"type\":\"ATTITUDE\",\"yaw\":-2.668549060821533,\"yawspeed\":-0.0019658771343529224},\"protocol_version\":{\"type\":\"V2\"}}"},"target":"network"}
{"timestamp":"2024-01-18T19:29:17.343540Z","level":"INFO","fields":{"message":"Received message 30 and ignored"},"target":"mavlink_network_node"}
{"timestamp":"2024-01-18T19:29:17.389585Z","level":"DEBUG","fields":{"message":"Sending packet","driver":"lora_driver","json_packet":"{\"header\":{\"component_id\":1,\"sequence\":27,\"system_id\":1},\"msg\":{\"autopilot\":{\"type\":\"MAV_AUTOPILOT_PX4\"},\"base_mode\":{\"bits\":29},\"custom_mode\":50593792,\"mavlink_version\":3,\"mavtype\":{\"type\":\"MAV_TYPE_QUADROTOR\"},\"system_status\":{\"type\":\"MAV_STATE_STANDBY\"},\"type\":\"HEARTBEAT\"},\"protocol_version\":{\"type\":\"V2\"}}"},"target":"network","span":{"driver":"lora_driver","name":"Transmitting"},"spans":[{"driver":"lora_driver","name":"Transmitting"}]}
{"timestamp":"2024-01-18T19:29:17.389862Z","level":"DEBUG","fields":{"message":"close","time.busy":"47.6ms","time.idle":"98.9ms"},"target":"network","span":{"driver":"lora_driver","name":"Transmitting"},"spans":[]}
{"timestamp":"2024-01-18T19:29:17.390049Z","level":"INFO","fields":{"message":"Transmit initiated","driver":"lora_driver"},"target":"network"}
{"timestamp":"2024-01-18T19:29:17.404199Z","level":"DEBUG","fields":{"message":"close","time.busy":"13.9ms","time.idle":"6.98µs"},"target":"network","span":{"driver":"lora_driver","name":"Prepare For TX"},"spans":[{"driver":"lora_driver","name":"Transmitting"}]}
{"timestamp":"2024-01-18T19:29:17.464908Z","level":"DEBUG","fields":{"message":"Received packet","driver":"udp_driver","json_packet":"{\"header\":{\"component_id\":1,\"sequence\":35,\"system_id\":1},\"msg\":{\"pitch\":-0.003888786304742098,\"pitchspeed\":-0.000482270959764719,\"roll\":0.010481653735041618,\"rollspeed\":-0.00003730505704879761,\"time_boot_ms\":10766,\"type\":\"ATTITUDE\",\"yaw\":-2.668274402618408,\"yawspeed\":-0.0019795228727161884},\"protocol_version\":{\"type\":\"V2\"}}"},"target":"network"}
{"timestamp":"2024-01-18T19:29:17.465070Z","level":"INFO","fields":{"message":"Received message 30 and ignored"},"target":"mavlink_network_node"}
{"timestamp":"2024-01-18T19:29:17.585408Z","level":"DEBUG","fields":{"message":"Received packet","driver":"udp_driver","json_packet":"{\"header\":{\"component_id\":1,\"sequence\":36,\"system_id\":1},\"msg\":{\"pitch\":-0.003890621243044734,\"pitchspeed\":0.00014052330516278744,\"roll\":0.010462086647748947,\"rollspeed\":-0.0014188680797815323,\"time_boot_ms\":10889,\"type\":\"ATTITUDE\",\"yaw\":-2.6682424545288086,\"yawspeed\":-0.0019496944732964039},\"protocol_version\":{\"type\":\"V2\"}}"},"target":"network"}
{"timestamp":"2024-01-18T19:29:17.585519Z","level":"INFO","fields":{"message":"Received message 30 and ignored"},"target":"mavlink_network_node"}
{"timestamp":"2024-01-18T19:29:17.600499Z","level":"DEBUG","fields":{"message":"Sending packet","driver":"lora_driver","json_packet":"{\"header\":{\"component_id\":1,\"sequence\":30,\"system_id\":1},\"msg\":{\"messages_lost\":1,\"messages_received\":12,\"messages_sent\":12,\"rx_buf\":0,\"rx_overflows\":0,\"rx_parse_err\":0,\"rx_rate\":251,\"timestamp\":10209947,\"tx_buf\":0,\"tx_overflows\":0,\"tx_rate\":312,\"type\":\"LINK_NODE_STATUS\"},\"protocol_version\":{\"type\":\"V2\"}}"},"target":"network","span":{"driver":"lora_driver","name":"Transmitting"},"spans":[{"driver":"lora_driver","name":"Transmitting"}]}
{"timestamp":"2024-01-18T19:29:17.600778Z","level":"DEBUG","fields":{"message":"close","time.busy":"62.7ms","time.idle":"148ms"},"target":"network","span":{"driver":"lora_driver","name":"Transmitting"},"spans":[]}
{"timestamp":"2024-01-18T19:29:17.631540Z","level":"DEBUG","fields":{"message":"close","time.busy":"30.5ms","time.idle":"7.13µs"},"target":"network","span":{"driver":"lora_driver","name":"Prepare For RX"},"spans":[{"driver":"lora_driver","name":"Receiving"}]}
{"timestamp":"2024-01-18T19:29:17.706392Z","level":"DEBUG","fields":{"message":"Received packet","driver":"udp_driver","json_packet":"{\"header\":{\"component_id\":1,\"sequence\":37,\"system_id\":1},\"msg\":{\"pitch\":-0.003910064231604338,\"pitchspeed\":-0.00023800088092684746,\"roll\":0.0104373125359416,\"rollspeed\":-0.0007684100419282913,\"time_boot_ms\":11008,\"type\":\"ATTITUDE\",\"yaw\":-2.6684257984161377,\"yawspeed\":-0.0022812495008111},\"protocol_version\":{\"type\":\"V2\"}}"},"target":"network"}
{"timestamp":"2024-01-18T19:29:17.706501Z","level":"INFO","fields":{"message":"Received message 30 and ignored"},"target":"mavlink_network_node"}
{"timestamp":"2024-01-18T19:29:17.750503Z","level":"DEBUG","fields":{"message":"Received packet","driver":"udp_driver","json_packet":"{\"header\":{\"component_id\":1,\"sequence\":38,\"system_id\":1},\"msg\":{\"flags\":{\"bits\":0},\"sequence\":16,\"type\":\"CURRENT_EVENT_SEQUENCE\"},\"protocol_version\":{\"type\":\"V2\"}}"},"target":"network"}
{"timestamp":"2024-01-18T19:29:17.750589Z","level":"DEBUG","fields":{"message":"Send to network","driver":"lora_driver"},"target":"main"}
{"timestamp":"2024-01-18T19:29:17.827381Z","level":"DEBUG","fields":{"message":"Received packet","driver":"udp_driver","json_packet":"{\"header\":{\"component_id\":1,\"sequence\":39,\"system_id\":1},\"msg\":{\"pitch\":-0.0039098626002669334,\"pitchspeed\":0.0006310970056802034,\"roll\":0.01044519618153572,\"rollspeed\":0.00030718185007572174,\"time_boot_ms\":11132,\"type\":\"ATTITUDE\",\"yaw\":-2.668461799621582,\"yawspeed\":-0.0016933060251176357},\"protocol_version\":{\"type\":\"V2\"}}"},"target":"network"}
{"timestamp":"2024-01-18T19:29:17.827472Z","level":"INFO","fields":{"message":"Received message 30 and ignored"},"target":"mavlink_network_node"}
{"timestamp":"2024-01-18T19:29:17.860385Z","level":"DEBUG","fields":{"message":"Received packet","driver":"udp_driver","json_packet":"{\"header\":{\"component_id\":1,\"sequence\":40,\"system_id\":1},\"msg\":{\"autopilot\":{\"type\":\"MAV_AUTOPILOT_PX4\"},\"base_mode\":{\"bits\":29},\"custom_mode\":50593792,\"mavlink_version\":3,\"mavtype\":{\"type\":\"MAV_TYPE_QUADROTOR\"},\"system_status\":{\"type\":\"MAV_STATE_STANDBY\"},\"type\":\"HEARTBEAT\"},\"protocol_version\":{\"type\":\"V2\"}}"},"target":"network"}
{"timestamp":"2024-01-18T19:29:17.860490Z","level":"DEBUG","fields":{"message":"Send to network","driver":"lora_driver"},"target":"main"}
{"timestamp":"2024-01-18T19:29:17.948755Z","level":"DEBUG","fields":{"message":"Received packet","driver":"udp_driver","json_packet":"{\"header\":{\"component_id\":1,\"sequence\":41,\"system_id\":1},\"msg\":{\"pitch\":-0.0038967051077634096,\"pitchspeed\":0.00009749457240104675,\"roll\":0.010429756715893745,\"rollspeed\":-0.000405007041990757,\"time_boot_ms\":11251,\"type\":\"ATTITUDE\",\"yaw\":-2.668341636657715,\"yawspeed\":-0.0025254120118916035},\"protocol_version\":{\"type\":\"V2\"}}"},"target":"network"}
{"timestamp":"2024-01-18T19:29:17.948853Z","level":"INFO","fields":{"message":"Received message 30 and ignored"},"target":"mavlink_network_node"}
{"timestamp":"2024-01-18T19:29:18.069575Z","level":"DEBUG","fields":{"message":"Received packet","driver":"udp_driver","json_packet":"{\"header\":{\"component_id\":1,\"sequence\":42,\"system_id\":1},\"msg\":{\"pitch\":-0.0038793818093836308,\"pitchspeed\":0.0005363435484468937,\"roll\":0.010451329872012138,\"rollspeed\":0.0006742691621184349,\"time_boot_ms\":11375,\"type\":\"ATTITUDE\",\"yaw\":-2.6681630611419678,\"yawspeed\":-0.0020616650581359863},\"protocol_version\":{\"type\":\"V2\"}}"},"target":"network"}
{"timestamp":"2024-01-18T19:29:18.069673Z","level":"INFO","fields":{"message":"Received message 30 and ignored"},"target":"mavlink_network_node"}
{"timestamp":"2024-01-18T19:29:18.135472Z","level":"DEBUG","fields":{"message":"Received packet","driver":"udp_driver","json_packet":"{\"header\":{\"component_id\":1,\"sequence\":43,\"system_id\":1},\"msg\":{\"airspeed\":0.0,\"alt\":186.23068237304688,\"climb\":0.0018272273009642959,\"groundspeed\":0.0008734387229196727,\"heading\":207,\"throttle\":0,\"type\":\"VFR_HUD\"},\"protocol_version\":{\"type\":\"V2\"}}"},"target":"network"}
{"timestamp":"2024-01-18T19:29:18.135561Z","level":"INFO","fields":{"message":"Received message 30 and ignored"},"target":"mavlink_network_node"}
{"timestamp":"2024-01-18T19:29:18.135603Z","level":"DEBUG","fields":{"message":"Received packet","driver":"udp_driver","json_packet":"{\"header\":{\"component_id\":1,\"sequence\":44,\"system_id\":1},\"msg\":{\"messages_lost\":1,\"messages_received\":27,\"messages_sent\":26,\"rx_buf\":0,\"rx_overflows\":0,\"rx_parse_err\":0,\"rx_rate\":272,\"timestamp\":11442031,\"tx_buf\":0,\"tx_overflows\":0,\"tx_rate\":463,\"type\":\"LINK_NODE_STATUS\"},\"protocol_version\":{\"type\":\"V2\"}}"},"target":"network"}
{"timestamp":"2024-01-18T19:29:18.135680Z","level":"DEBUG","fields":{"message":"Send to network","driver":"lora_driver"},"target":"main"}
{"timestamp":"2024-01-18T19:29:18.151518Z","level":"DEBUG","fields":{"message":"close","time.busy":"551ms","time.idle":"17.2µs"},"target":"network","span":{"driver":"lora_driver","name":"Receiving"},"spans":[]}
{"timestamp":"2024-01-18T19:29:18.151756Z","level":"INFO","fields":{"message":"Transmit initiated","driver":"lora_driver"},"target":"network"}
{"timestamp":"2024-01-18T19:29:18.165902Z","level":"DEBUG","fields":{"message":"close","time.busy":"13.9ms","time.idle":"7.11µs"},"target":"network","span":{"driver":"lora_driver","name":"Prepare For TX"},"spans":[{"driver":"lora_driver","name":"Transmitting"}]}
{"timestamp":"2024-01-18T19:29:18.190424Z","level":"DEBUG","fields":{"message":"Received packet","driver":"udp_driver","json_packet":"{\"header\":{\"component_id\":1,\"sequence\":45,\"system_id\":1},\"msg\":{\"pitch\":-0.0038854358717799187,\"pitchspeed\":-0.00009209383279085159,\"roll\":0.01045046653598547,\"rollspeed\":0.000017371145077049732,\"time_boot_ms\":11494,\"type\":\"ATTITUDE\",\"yaw\":-2.6676878929138184,\"yawspeed\":-0.0017184088937938213},\"protocol_version\":{\"type\":\"V2\"}}"},"target":"network"}
{"timestamp":"2024-01-18T19:29:18.190569Z","level":"INFO","fields":{"message":"Received message 30 and ignored"},"target":"mavlink_network_node"}
{"timestamp":"2024-01-18T19:29:18.258264Z","level":"DEBUG","fields":{"message":"Sending packet","driver":"lora_driver","json_packet":"{\"header\":{\"component_id\":1,\"sequence\":38,\"system_id\":1},\"msg\":{\"flags\":{\"bits\":0},\"sequence\":16,\"type\":\"CURRENT_EVENT_SEQUENCE\"},\"protocol_version\":{\"type\":\"V2\"}}"},"target":"network","span":{"driver":"lora_driver","name":"Transmitting"},"spans":[{"driver":"lora_driver","name":"Transmitting"}]}
{"timestamp":"2024-01-18T19:29:18.258641Z","level":"DEBUG","fields":{"message":"close","time.busy":"40.8ms","time.idle":"65.9ms"},"target":"network","span":{"driver":"lora_driver","name":"Transmitting"},"spans":[]}
{"timestamp":"2024-01-18T19:29:18.258847Z","level":"INFO","fields":{"message":"Transmit initiated","driver":"lora_driver"},"target":"network"}
{"timestamp":"2024-01-18T19:29:18.272961Z","level":"DEBUG","fields":{"message":"close","time.busy":"13.9ms","time.idle":"7.89µs"},"target":"network","span":{"driver":"lora_driver","name":"Prepare For TX"},"spans":[{"driver":"lora_driver","name":"Transmitting"}]}
{"timestamp":"2024-01-18T19:29:18.322531Z","level":"DEBUG","fields":{"message":"Received packet","driver":"udp_driver","json_packet":"{\"header\":{\"component_id\":1,\"sequence\":46,\"system_id\":1},\"msg\":{\"pitch\":-0.0038780001923441887,\"pitchspeed\":0.0005835623014718294,\"roll\":0.010455965995788574,\"rollspeed\":0.00018793076742440462,\"time_boot_ms\":11627,\"type\":\"ATTITUDE\",\"yaw\":-2.6673316955566406,\"yawspeed\":-0.0012591886334121227},\"protocol_version\":{\"type\":\"V2\"}}"},"target":"network"}
{"timestamp":"2024-01-18T19:29:18.322686Z","level":"INFO","fields":{"message":"Received message 30 and ignored"},"target":"mavlink_network_node"}
{"timestamp":"2024-01-18T19:29:18.405430Z","level":"DEBUG","fields":{"message":"Sending packet","driver":"lora_driver","json_packet":"{\"header\":{\"component_id\":1,\"sequence\":40,\"system_id\":1},\"msg\":{\"autopilot\":{\"type\":\"MAV_AUTOPILOT_PX4\"},\"base_mode\":{\"bits\":29},\"custom_mode\":50593792,\"mavlink_version\":3,\"mavtype\":{\"type\":\"MAV_TYPE_QUADROTOR\"},\"system_status\":{\"type\":\"MAV_STATE_STANDBY\"},\"type\":\"HEARTBEAT\"},\"protocol_version\":{\"type\":\"V2\"}}"},"target":"network","span":{"driver":"lora_driver","name":"Transmitting"},"spans":[{"driver":"lora_driver","name":"Transmitting"}]}
{"timestamp":"2024-01-18T19:29:18.405718Z","level":"DEBUG","fields":{"message":"close","time.busy":"48.0ms","time.idle":"98.8ms"},"target":"network","span":{"driver":"lora_driver","name":"Transmitting"},"spans":[]}
{"timestamp":"2024-01-18T19:29:18.405921Z","level":"INFO","fields":{"message":"Transmit initiated","driver":"lora_driver"},"target":"network"}
{"timestamp":"2024-01-18T19:29:18.420030Z","level":"DEBUG","fields":{"message":"close","time.busy":"13.9ms","time.idle":"8.11µs"},"target":"network","span":{"driver":"lora_driver","name":"Prepare For TX"},"spans":[{"driver":"lora_driver","name":"Transmitting"}]}
{"timestamp":"2024-01-18T19:29:18.443427Z","level":"DEBUG","fields":{"message":"Received packet","driver":"udp_driver","json_packet":"{\"header\":{\"component_id\":1,\"sequence\":47,\"system_id\":1},\"msg\":{\"pitch\":-0.003863736754283309,\"pitchspeed\":0.00032333843410015106,\"roll\":0.010455947369337082,\"rollspeed\":-0.0005339187337085605,\"time_boot_ms\":11746,\"type\":\"ATTITUDE\",\"yaw\":-2.667360305786133,\"yawspeed\":-0.0017505721189081669},\"protocol_version\":{\"type\":\"V2\"}}"},"target":"network"}
{"timestamp":"2024-01-18T19:29:18.443549Z","level":"INFO","fields":{"message":"Received message 30 and ignored"},"target":"mavlink_network_node"}
{"timestamp":"2024-01-18T19:29:18.564529Z","level":"DEBUG","fields":{"message":"Received packet","driver":"udp_driver","json_packet":"{\"header\":{\"component_id\":1,\"sequence\":48,\"system_id\":1},\"msg\":{\"pitch\":-0.0038729174993932247,\"pitchspeed\":0.00044518662616610527,\"roll\":0.010447501204907894,\"rollspeed\":-0.0009343427373096347,\"time_boot_ms\":11870,\"type\":\"ATTITUDE\",\"yaw\":-2.6674273014068604,\"yawspeed\":-0.0015935827977955341},\"protocol_version\":{\"type\":\"V2\"}}"},"target":"network"}
{"timestamp":"2024-01-18T19:29:18.564677Z","level":"INFO","fields":{"message":"Received message 30 and ignored"},"target":"mavlink_network_node"}
{"timestamp":"2024-01-18T19:29:18.616212Z","level":"DEBUG","fields":{"message":"Sending packet","driver":"lora_driver","json_packet":"{\"header\":{\"component_id\":1,\"sequence\":44,\"system_id\":1},\"msg\":{\"messages_lost\":1,\"messages_received\":27,\"messages_sent\":26,\"rx_buf\":0,\"rx_overflows\":0,\"rx_parse_err\":0,\"rx_rate\":272,\"timestamp\":11442031,\"tx_buf\":0,\"tx_overflows\":0,\"tx_rate\":463,\"type\":\"LINK_NODE_STATUS\"},\"protocol_version\":{\"type\":\"V2\"}}"},"target":"network","span":{"driver":"lora_driver","name":"Transmitting"},"spans":[{"driver":"lora_driver","name":"Transmitting"}]}
{"timestamp":"2024-01-18T19:29:18.616492Z","level":"DEBUG","fields":{"message":"close","time.busy":"62.5ms","time.idle":"148ms"},"target":"network","span":{"driver":"lora_driver","name":"Transmitting"},"spans":[]}
{"timestamp":"2024-01-18T19:29:18.647259Z","level":"DEBUG","fields":{"message":"close","time.busy":"30.5ms","time.idle":"7.13µs"},"target":"network","span":{"driver":"lora_driver","name":"Prepare For RX"},"spans":[{"driver":"lora_driver","name":"Receiving"}]}
{"timestamp":"2024-01-18T19:29:18.685428Z","level":"DEBUG","fields":{"message":"Received packet","driver":"udp_driver","json_packet":"{\"header\":{\"component_id\":1,\"sequence\":49,\"system_id\":1},\"msg\":{\"pitch\":-0.0038589369505643845,\"pitchspeed\":0.0005653295665979385,\"roll\":0.010433628223836422,\"rollspeed\":-0.0011765210656449199,\"time_boot_ms\":11989,\"type\":\"ATTITUDE\",\"yaw\":-2.6671156883239746,\"yawspeed\":-0.0017582979053258896},\"protocol_version\":{\"type\":\"V2\"}}"},"target":"network"}
{"timestamp":"2024-01-18T19:29:18.685548Z","level":"INFO","fields":{"message":"Received message 30 and ignored"},"target":"mavlink_network_node"}
{"timestamp":"2024-01-18T19:29:18.806632Z","level":"DEBUG","fields":{"message":"Received packet","driver":"udp_driver","json_packet":"{\"header\":{\"component_id\":1,\"sequence\":50,\"system_id\":1},\"msg\":{\"pitch\":-0.0038138357922434807,\"pitchspeed\":0.0005143696907907724,\"roll\":0.010386645793914795,\"rollspeed\":-0.0009452680824324489,\"time_boot_ms\":12108,\"type\":\"ATTITUDE\",\"yaw\":-2.666767120361328,\"yawspeed\":-0.0011515477672219276},\"protocol_version\":{\"type\":\"V2\"}}"},"target":"network"}
{"timestamp":"2024-01-18T19:29:18.806730Z","level":"INFO","fields":{"message":"Received message 30 and ignored"},"target":"mavlink_network_node"}
{"timestamp":"2024-01-18T19:29:18.861547Z","level":"DEBUG","fields":{"message":"Received packet","driver":"udp_driver","json_packet":"{\"header\":{\"component_id\":1,\"sequence\":51,\"system_id\":1},\"msg\":{\"autopilot\":{\"type\":\"MAV_AUTOPILOT_PX4\"},\"base_mode\":{\"bits\":29},\"custom_mode\":50593792,\"mavlink_version\":3,\"mavtype\":{\"type\":\"MAV_TYPE_QUADROTOR\"},\"system_status\":{\"type\":\"MAV_STATE_STANDBY\"},\"type\":\"HEARTBEAT\"},\"protocol_version\":{\"type\":\"V2\"}}"},"target":"network"}
{"timestamp":"2024-01-18T19:29:18.861643Z","level":"DEBUG","fields":{"message":"Send to network","driver":"lora_driver"},"target":"main"}
{"timestamp":"2024-01-18T19:29:18.927416Z","level":"DEBUG","fields":{"message":"Received packet","driver":"udp_driver","json_packet":"{\"header\":{\"component_id\":1,\"sequence\":52,\"system_id\":1},\"msg\":{\"pitch\":-0.003805518615990877,\"pitchspeed\":-0.0006409953348338604,\"roll\":0.010343829169869423,\"rollspeed\":-0.0015857870457693934,\"time_boot_ms\":12231,\"type\":\"ATTITUDE\",\"yaw\":-2.666318655014038,\"yawspeed\":-0.0014509609900414944},\"protocol_version\":{\"type\":\"V2\"}}"},"target":"network"}
{"timestamp":"2024-01-18T19:29:18.927512Z","level":"INFO","fields":{"message":"Received message 30 and ignored"},"target":"mavlink_network_node"}
{"timestamp":"2024-01-18T19:29:19.048532Z","level":"DEBUG","fields":{"message":"Received packet","driver":"udp_driver","json_packet":"{\"header\":{\"component_id\":1,\"sequence\":53,\"system_id\":1},\"msg\":{\"pitch\":-0.003813954768702388,\"pitchspeed\":0.00018567661754786968,\"roll\":0.010325406678020954,\"rollspeed\":0.0002857103245332837,\"time_boot_ms\":12350,\"type\":\"ATTITUDE\",\"yaw\":-2.6661531925201416,\"yawspeed\":-0.002231075894087553},\"protocol_version\":{\"type\":\"V2\"}}"},"target":"network"}
{"timestamp":"2024-01-18T19:29:19.048629Z","level":"INFO","fields":{"message":"Received message 30 and ignored"},"target":"mavlink_network_node"}
{"timestamp":"2024-01-18T19:29:19.167095Z","level":"DEBUG","fields":{"message":"close","time.busy":"550ms","time.idle":"18.4µs"},"target":"network","span":{"driver":"lora_driver","name":"Receiving"},"spans":[]}
{"timestamp":"2024-01-18T19:29:19.167183Z","level":"INFO","fields":{"message":"Transmit initiated","driver":"lora_driver"},"target":"network"}
{"timestamp":"2024-01-18T19:29:19.169429Z","level":"DEBUG","fields":{"message":"Received packet","driver":"udp_driver","json_packet":"{\"header\":{\"component_id\":1,\"sequence\":54,\"system_id\":1},\"msg\":{\"pitch\":-0.0038334568962454796,\"pitchspeed\":0.0003997345920652151,\"roll\":0.010369254276156425,\"rollspeed\":-0.00015833869110792875,\"time_boot_ms\":12474,\"type\":\"ATTITUDE\",\"yaw\":-2.6662251949310303,\"yawspeed\":-0.0013798247091472149},\"protocol_version\":{\"type\":\"V2\"}}"},"target":"network"}
{"timestamp":"2024-01-18T19:29:19.169527Z","level":"INFO","fields":{"message":"Received message 30 and ignored"},"target":"mavlink_network_node"}
{"timestamp":"2024-01-18T19:29:19.181171Z","level":"DEBUG","fields":{"message":"close","time.busy":"13.9ms","time.idle":"8.20µs"},"target":"network","span":{"driver":"lora_driver","name":"Prepare For TX"},"spans":[{"driver":"lora_driver","name":"Transmitting"}]}
{"timestamp":"2024-01-18T19:29:19.301595Z","level":"DEBUG","fields":{"message":"Received packet","driver":"udp_driver","json_packet":"{\"header\":{\"component_id\":1,\"sequence\":55,\"system_id\":1},\"msg\":{\"pitch\":-0.0038525506388396025,\"pitchspeed\":-0.0005104676820337772,\"roll\":0.010398222133517265,\"rollspeed\":0.0002773274900391698,\"time_boot_ms\":12603,\"type\":\"ATTITUDE\",\"yaw\":-2.666349411010742,\"yawspeed\":-0.000878108199685812},\"protocol_version\":{\"type\":\"V2\"}}"},"target":"network"}
{"timestamp":"2024-01-18T19:29:19.301738Z","level":"INFO","fields":{"message":"Received message 30 and ignored"},"target":"mavlink_network_node"}
{"timestamp":"2024-01-18T19:29:19.313489Z","level":"DEBUG","fields":{"message":"Sending packet","driver":"lora_driver","json_packet":"{\"header\":{\"component_id\":1,\"sequence\":51,\"system_id\":1},\"msg\":{\"autopilot\":{\"type\":\"MAV_AUTOPILOT_PX4\"},\"base_mode\":{\"bits\":29},\"custom_mode\":50593792,\"mavlink_version\":3,\"mavtype\":{\"type\":\"MAV_TYPE_QUADROTOR\"},\"system_status\":{\"type\":\"MAV_STATE_STANDBY\"},\"type\":\"HEARTBEAT\"},\"protocol_version\":{\"type\":\"V2\"}}"},"target":"network","span":{"driver":"lora_driver","name":"Transmitting"},"spans":[{"driver":"lora_driver","name":"Transmitting"}]}
{"timestamp":"2024-01-18T19:29:19.313776Z","level":"DEBUG","fields":{"message":"close","time.busy":"47.9ms","time.idle":"98.7ms"},"target":"network","span":{"driver":"lora_driver","name":"Transmitting"},"spans":[]}
{"timestamp":"2024-01-18T19:29:19.344517Z","level":"DEBUG","fields":{"message":"close","time.busy":"30.5ms","time.idle":"7.13µs"},"target":"network","span":{"driver":"lora_driver","name":"Prepare For RX"},"spans":[{"driver":"lora_driver","name":"Receiving"}]}
{"timestamp":"2024-01-18T19:29:19.357225Z","level":"DEBUG","fields":{"message":"Received packet","driver":"udp_driver","json_packet":"{\"header\":{\"component_id\":1,\"sequence\":56,\"system_id\":1},\"msg\":{\"altitude_amsl\":186.39715576171875,\"altitude_local\":-0.19301360845565796,\"altitude_monotonic\":186.39715576171875,\"altitude_relative\":-0.19301360845565796,\"altitude_terrain\":null,\"bottom_clearance\":null,\"time_usec\":12663673,\"type\":\"ALTITUDE\"},\"protocol_version\":{\"type\":\"V2\"}}"},"target":"network"}
{"timestamp":"2024-01-18T19:29:19.357337Z","level":"INFO","fields":{"message":"Received message 30 and ignored"},"target":"mavlink_network_node"}
{"timestamp":"2024-01-18T19:29:19.357379Z","level":"DEBUG","fields":{"message":"Received packet","driver":"udp_driver","json_packet":"{\"header\":{\"component_id\":1,\"sequence\":57,\"system_id\":1},\"msg\":{\"airspeed\":0.0,\"alt\":186.39715576171875,\"climb\":0.0003089857054874301,\"groundspeed\":0.0004254099912941456,\"heading\":207,\"throttle\":0,\"type\":\"VFR_HUD\"},\"protocol_version\":{\"type\":\"V2\"}}"},"target":"network"}
{"timestamp":"2024-01-18T19:29:19.357447Z","level":"INFO","fields":{"message":"Received message 30 and ignored"},"target":"mavlink_network_node"}
{"timestamp":"2024-01-18T19:29:19.357490Z","level":"DEBUG","fields":{"message":"Received packet","driver":"udp_driver","json_packet":"{\"header\":{\"component_id\":1,\"sequence\":58,\"system_id\":1},\"msg\":{\"messages_lost\":1,\"messages_received\":40,\"messages_sent\":40,\"rx_buf\":0,\"rx_overflows\":0,\"rx_parse_err\":0,\"rx_rate\":230,\"timestamp\":12663724,\"tx_buf\":0,\"tx_overflows\":0,\"tx_rate\":406,\"type\":\"LINK_NODE_STATUS\"},\"protocol_version\":{\"type\":\"V2\"}}"},"target":"network"}
{"timestamp":"2024-01-18T19:29:19.357583Z","level":"DEBUG","fields":{"message":"Send to network","driver":"lora_driver"},"target":"main"}
{"timestamp":"2024-01-18T19:29:19.422561Z","level":"DEBUG","fields":{"message":"Received packet","driver":"udp_driver","json_packet":"{\"header\":{\"component_id\":1,\"sequence\":59,\"system_id\":1},\"msg\":{\"pitch\":-0.003855569288134575,\"pitchspeed\":0.000049511902034282684,\"roll\":0.010396336205303669,\"rollspeed\":-0.0002651893300935626,\"time_boot_ms\":12727,\"type\":\"ATTITUDE\",\"yaw\":-2.666569232940674,\"yawspeed\":-0.0008972752839326859},\"protocol_version\":{\"type\":\"V2\"}}"},"target":"network"}
{"timestamp":"2024-01-18T19:29:19.422710Z","level":"INFO","fields":{"message":"Received message 30 and ignored"},"target":"mavlink_network_node"}
{"timestamp":"2024-01-18T19:29:19.543488Z","level":"DEBUG","fields":{"message":"Received packet","driver":"udp_driver","json_packet":"{\"header\":{\"component_id\":1,\"sequence\":60,\"system_id\":1},\"msg\":{\"pitch\":-0.003855097107589245,\"pitchspeed\":0.00038909190334379673,\"roll\":0.010423901490867138,\"rollspeed\":0.0010356988059356809,\"time_boot_ms\":12846,\"type\":\"ATTITUDE\",\"yaw\":-2.666520833969116,\"yawspeed\":-0.001364025752991438},\"protocol_version\":{\"type\":\"V2\"}}"},"target":"network"}
{"timestamp":"2024-01-18T19:29:19.543601Z","level":"INFO","fields":{"message":"Received message 30 and ignored"},"target":"mavlink_network_node"}
{"timestamp":"2024-01-18T19:29:19.660406Z","level":"DEBUG","fields":{"message":"Received packet","driver":"lora_driver","rssi":-58,"json_packet":"{\"header\":{\"component_id\":190,\"sequence\":202,\"system_id\":255},\"msg\":{\"autopilot\":{\"type\":\"MAV_AUTOPILOT_INVALID\"},\"base_mode\":{\"bits\":192},\"custom_mode\":0,\"mavlink_version\":3,\"mavtype\":{\"type\":\"MAV_TYPE_GCS\"},\"system_status\":{\"type\":\"MAV_STATE_ACTIVE\"},\"type\":\"HEARTBEAT\"},\"protocol_version\":{\"type\":\"V2\"}}"},"target":"network","span":{"driver":"lora_driver","name":"Receiving"},"spans":[{"driver":"lora_driver","name":"Receiving"}]}
{"timestamp":"2024-01-18T19:29:19.660534Z","level":"DEBUG","fields":{"message":"close","time.busy":"347ms","time.idle":"16.8µs"},"target":"network","span":{"driver":"lora_driver","name":"Receiving"},"spans":[]}
{"timestamp":"2024-01-18T19:29:19.660774Z","level":"INFO","fields":{"message":"Listen initiated","driver":"lora_driver"},"target":"network"}
{"timestamp":"2024-01-18T19:29:19.660876Z","level":"DEBUG","fields":{"message":"Sending packet","driver":"udp_driver","json_packet":"{\"header\":{\"component_id\":190,\"sequence\":202,\"system_id\":255},\"msg\":{\"autopilot\":{\"type\":\"MAV_AUTOPILOT_INVALID\"},\"base_mode\":{\"bits\":192},\"custom_mode\":0,\"mavlink_version\":3,\"mavtype\":{\"type\":\"MAV_TYPE_GCS\"},\"system_status\":{\"type\":\"MAV_STATE_ACTIVE\"},\"type\":\"HEARTBEAT\"},\"protocol_version\":{\"type\":\"V2\"}}"},"target":"network"}
{"timestamp":"2024-01-18T19:29:19.660828Z","level":"DEBUG","fields":{"message":"Send to main","driver":"lora_driver"},"target":"network"}
{"timestamp":"2024-01-18T19:29:19.664549Z","level":"DEBUG","fields":{"message":"Received packet","driver":"udp_driver","json_packet":"{\"header\":{\"component_id\":1,\"sequence\":61,\"system_id\":1},\"msg\":{\"pitch\":-0.0038533457554876804,\"pitchspeed\":0.00012119603343307972,\"roll\":0.010396232828497887,\"rollspeed\":-0.0003974566934630275,\"time_boot_ms\":12969,\"type\":\"ATTITUDE\",\"yaw\":-2.6663565635681152,\"yawspeed\":-0.001199993770569563},\"protocol_version\":{\"type\":\"V2\"}}"},"target":"network"}
{"timestamp":"2024-01-18T19:29:19.664644Z","level":"INFO","fields":{"message":"Received message 30 and ignored"},"target":"mavlink_network_node"}
{"timestamp":"2024-01-18T19:29:19.692765Z","level":"DEBUG","fields":{"message":"close","time.busy":"31.5ms","time.idle":"9.13µs"},"target":"network","span":{"driver":"lora_driver","name":"Prepare For RX"},"spans":[{"driver":"lora_driver","name":"Receiving"}]}
{"timestamp":"2024-01-18T19:29:19.786545Z","level":"DEBUG","fields":{"message":"Received packet","driver":"udp_driver","json_packet":"{\"header\":{\"component_id\":1,\"sequence\":62,\"system_id\":1},\"msg\":{\"pitch\":-0.0038788665551692247,\"pitchspeed\":0.000058427220210433006,\"roll\":0.010397282429039478,\"rollspeed\":-0.0009084547637030482,\"time_boot_ms\":13088,\"type\":\"ATTITUDE\",\"yaw\":-2.6662325859069824,\"yawspeed\":-0.0011733220890164375},\"protocol_version\":{\"type\":\"V2\"}}"},"target":"network"}
{"timestamp":"2024-01-18T19:29:19.786654Z","level":"INFO","fields":{"message":"Received message 30 and ignored"},"target":"mavlink_network_node"}
{"timestamp":"2024-01-18T19:29:19.863459Z","level":"DEBUG","fields":{"message":"Received packet","driver":"udp_driver","json_packet":"{\"header\":{\"component_id\":1,\"sequence\":63,\"system_id\":1},\"msg\":{\"autopilot\":{\"type\":\"MAV_AUTOPILOT_PX4\"},\"base_mode\":{\"bits\":29},\"custom_mode\":50593792,\"mavlink_version\":3,\"mavtype\":{\"type\":\"MAV_TYPE_QUADROTOR\"},\"system_status\":{\"type\":\"MAV_STATE_STANDBY\"},\"type\":\"HEARTBEAT\"},\"protocol_version\":{\"type\":\"V2\"}}"},"target":"network"}
{"timestamp":"2024-01-18T19:29:19.863557Z","level":"DEBUG","fields":{"message":"Send to network","driver":"lora_driver"},"target":"main"}
{"timestamp":"2024-01-18T19:29:19.907441Z","level":"DEBUG","fields":{"message":"Received packet","driver":"udp_driver","json_packet":"{\"header\":{\"component_id\":1,\"sequence\":64,\"system_id\":1},\"msg\":{\"pitch\":-0.0039021791890263557,\"pitchspeed\":0.00043848948553204536,\"roll\":0.010401205159723759,\"rollspeed\":-0.0001456391764804721,\"time_boot_ms\":13212,\"type\":\"ATTITUDE\",\"yaw\":-2.6661322116851807,\"yawspeed\":-0.001627123448997736},\"protocol_version\":{\"type\":\"V2\"}}"},"target":"network"}
{"timestamp":"2024-01-18T19:29:19.907532Z","level":"INFO","fields":{"message":"Received message 30 and ignored"},"target":"mavlink_network_node"}
{"timestamp":"2024-01-18T19:29:20.028737Z","level":"DEBUG","fields":{"message":"Received packet","driver":"udp_driver","json_packet":"{\"header\":{\"component_id\":1,\"sequence\":65,\"system_id\":1},\"msg\":{\"pitch\":-0.0039152237586677074,\"pitchspeed\":0.00006357301026582718,\"roll\":0.01039127167314291,\"rollspeed\":0.00003368512261658907,\"time_boot_ms\":13331,\"type\":\"ATTITUDE\",\"yaw\":-2.6660420894622803,\"yawspeed\":-0.0013682772405445576},\"protocol_version\":{\"type\":\"V2\"}}"},"target":"network"}
{"timestamp":"2024-01-18T19:29:20.028876Z","level":"INFO","fields":{"message":"Received message 30 and ignored"},"target":"mavlink_network_node"}
{"timestamp":"2024-01-18T19:29:20.105500Z","level":"DEBUG","fields":{"message":"Received packet","driver":"udp_driver","json_packet":"{\"header\":{\"component_id\":1,\"sequence\":66,\"system_id\":1},\"msg\":{\"landed_state\":{\"type\":\"MAV_LANDED_STATE_ON_GROUND\"},\"type\":\"EXTENDED_SYS_STATE\",\"vtol_state\":{\"type\":\"MAV_VTOL_STATE_UNDEFINED\"}},\"protocol_version\":{\"type\":\"V2\"}}"},"target":"network"}
{"timestamp":"2024-01-18T19:29:20.105603Z","level":"DEBUG","fields":{"message":"Send to network","driver":"lora_driver"},"target":"main"}
{"timestamp":"2024-01-18T19:29:20.105699Z","level":"DEBUG","fields":{"message":"Received packet","driver":"udp_driver","json_packet":"{\"header\":{\"component_id\":1,\"sequence\":67,\"system_id\":1},\"msg\":{\"battery_remaining\":-1,\"current_battery\":-1,\"drop_rate_comm\":0,\"errors_comm\":0,\"errors_count1\":0,\"errors_count2\":0,\"errors_count3\":0,\"errors_count4\":0,\"load\":313,\"onboard_control_sensors_enabled\":{\"bits\":2162701},\"onboard_control_sensors_health\":{\"bits\":572555327},\"onboard_control_sensors_present\":{\"bits\":2097165},\"type\":\"SYS_STATUS\",\"voltage_battery\":65535},\"protocol_version\":{\"type\":\"V2\"}}"},"target":"network"}
{"timestamp":"2024-01-18T19:29:20.105804Z","level":"DEBUG","fields":{"message":"Send to network","driver":"lora_driver"},"target":"main"}
{"timestamp":"2024-01-18T19:29:20.149622Z","level":"DEBUG","fields":{"message":"Received packet","driver":"udp_driver","json_packet":"{\"header\":{\"component_id\":1,\"sequence\":68,\"system_id\":1},\"msg\":{\"pitch\":-0.003915679175406694,\"pitchspeed\":0.00016943598166108131,\"roll\":0.010392583906650543,\"rollspeed\":-0.00030579406302422285,\"time_boot_ms\":13455,\"type\":\"ATTITUDE\",\"yaw\":-2.6660268306732178,\"yawspeed\":-0.0005829455330967903},\"protocol_version\":{\"type\":\"V2\"}}"},"target":"network"}
{"timestamp":"2024-01-18T19:29:20.149732Z","level":"INFO","fields":{"message":"Received message 30 and ignored"},"target":"mavlink_network_node"}
{"timestamp":"2024-01-18T19:29:20.212821Z","level":"DEBUG","fields":{"message":"close","time.busy":"552ms","time.idle":"18.9µs"},"target":"network","span":{"driver":"lora_driver","name":"Receiving"},"spans":[]}
{"timestamp":"2024-01-18T19:29:20.213042Z","level":"INFO","fields":{"message":"Transmit initiated","driver":"lora_driver"},"target":"network"}
{"timestamp":"2024-01-18T19:29:20.227161Z","level":"DEBUG","fields":{"message":"close","time.busy":"13.9ms","time.idle":"6.94µs"},"target":"network","span":{"driver":"lora_driver","name":"Prepare For TX"},"spans":[{"driver":"lora_driver","name":"Transmitting"}]}
{"timestamp":"2024-01-18T19:29:20.281488Z","level":"DEBUG","fields":{"message":"Received packet","driver":"udp_driver","json_packet":"{\"header\":{\"component_id\":1,\"sequence\":69,\"system_id\":1},\"msg\":{\"pitch\":-0.0039062269497662783,\"pitchspeed\":0.0003086400683969259,\"roll\":0.010397052392363548,\"rollspeed\":0.00006729527376592159,\"time_boot_ms\":13583,\"type\":\"ATTITUDE\",\"yaw\":-2.665978193283081,\"yawspeed\":-0.0007853894494473934},\"protocol_version\":{\"type\":\"V2\"}}"},"target":"network"}
{"timestamp":"2024-01-18T19:29:20.281641Z","level":"INFO","fields":{"message":"Received message 30 and ignored"},"target":"mavlink_network_node"}
{"timestamp":"2024-01-18T19:29:20.402557Z","level":"DEBUG","fields":{"message":"Received packet","driver":"udp_driver","json_packet":"{\"header\":{\"component_id\":1,\"sequence\":70,\"system_id\":1},\"msg\":{\"pitch\":-0.0039027396123856306,\"pitchspeed\":-0.000018677907064557076,\"roll\":0.010389273054897785,\"rollspeed\":0.0006722051184624434,\"time_boot_ms\":13707,\"type\":\"ATTITUDE\",\"yaw\":-2.6660656929016113,\"yawspeed\":-0.0006874934770166874},\"protocol_version\":{\"type\":\"V2\"}}"},"target":"network"}
{"timestamp":"2024-01-18T19:29:20.402678Z","level":"INFO","fields":{"message":"Received message 30 and ignored"},"target":"mavlink_network_node"}
{"timestamp":"2024-01-18T19:29:20.423478Z","level":"DEBUG","fields":{"message":"Sending packet","driver":"lora_driver","json_packet":"{\"header\":{\"component_id\":1,\"sequence\":58,\"system_id\":1},\"msg\":{\"messages_lost\":1,\"messages_received\":40,\"messages_sent\":40,\"rx_buf\":0,\"rx_overflows\":0,\"rx_parse_err\":0,\"rx_rate\":230,\"timestamp\":12663724,\"tx_buf\":0,\"tx_overflows\":0,\"tx_rate\":406,\"type\":\"LINK_NODE_STATUS\"},\"protocol_version\":{\"type\":\"V2\"}}"},"target":"network","span":{"driver":"lora_driver","name":"Transmitting"},"spans":[{"driver":"lora_driver","name":"Transmitting"}]}
{"timestamp":"2024-01-18T19:29:20.423769Z","level":"DEBUG","fields":{"message":"close","time.busy":"62.7ms","time.idle":"148ms"},"target":"network","span":{"driver":"lora_driver","name":"Transmitting"},"spans":[]}
{"timestamp":"2024-01-18T19:29:20.454523Z","level":"DEBUG","fields":{"message":"close","time.busy":"30.5ms","time.idle":"6.91µs"},"target":"network","span":{"driver":"lora_driver","name":"Prepare For RX"},"spans":[{"driver":"lora_driver","name":"Receiving"}]}
{"timestamp":"2024-01-18T19:29:20.523681Z","level":"DEBUG","fields":{"message":"Received packet","driver":"udp_driver","json_packet":"{\"header\":{\"component_id\":1,\"sequence\":71,\"system_id\":1},\"msg\":{\"pitch\":-0.0039153918623924255,\"pitchspeed\":-0.0002803655806928873,\"roll\":0.010387629270553589,\"rollspeed\":-0.00017421809025108814,\"time_boot_ms\":13826,\"type\":\"ATTITUDE\",\"yaw\":-2.666231632232666,\"yawspeed\":-0.0011347457766532898},\"protocol_version\":{\"type\":\"V2\"}}"},"target":"network"}
{"timestamp":"2024-01-18T19:29:20.523815Z","level":"INFO","fields":{"message":"Received message 30 and ignored"},"target":"mavlink_network_node"}
{"timestamp":"2024-01-18T19:29:20.578488Z","level":"DEBUG","fields":{"message":"Received packet","driver":"udp_driver","json_packet":"{\"header\":{\"component_id\":1,\"sequence\":72,\"system_id\":1},\"msg\":{\"airspeed\":0.0,\"alt\":186.28880310058594,\"climb\":0.0004954038886353374,\"groundspeed\":0.0004132850153837353,\"heading\":207,\"throttle\":0,\"type\":\"VFR_HUD\"},\"protocol_version\":{\"type\":\"V2\"}}"},"target":"network"}
{"timestamp":"2024-01-18T19:29:20.578590Z","level":"INFO","fields":{"message":"Received message 30 and ignored"},"target":"mavlink_network_node"}
{"timestamp":"2024-01-18T19:29:20.578638Z","level":"DEBUG","fields":{"message":"Received packet","driver":"udp_driver","json_packet":"{\"header\":{\"component_id\":1,\"sequence\":73,\"system_id\":1},\"msg\":{\"messages_lost\":37,\"messages_received\":57,\"messages_sent\":55,\"rx_buf\":0,\"rx_overflows\":0,\"rx_parse_err\":0,\"rx_rate\":272,\"timestamp\":13884960,\"tx_buf\":0,\"tx_overflows\":0,\"tx_rate\":450,\"type\":\"LINK_NODE_STATUS\"},\"protocol_version\":{\"type\":\"V2\"}}"},"target":"network"}
{"timestamp":"2024-01-18T19:29:20.578712Z","level":"DEBUG","fields":{"message":"Send to network","driver":"lora_driver"},"target":"main"}
{"timestamp":"2024-01-18T19:29:20.644472Z","level":"DEBUG","fields":{"message":"Received packet","driver":"udp_driver","json_packet":"{\"header\":{\"component_id\":1,\"sequence\":74,\"system_id\":1},\"msg\":{\"pitch\":-0.0039046613965183496,\"pitchspeed\":0.00009910762310028076,\"roll\":0.010369754396378994,\"rollspeed\":-7.629860192537308e-7,\"time_boot_ms\":13950,\"type\":\"ATTITUDE\",\"yaw\":-2.666078805923462,\"yawspeed\":-0.0012590480037033558},\"protocol_version\":{\"type\":\"V2\"}}"},"target":"network"}
{"timestamp":"2024-01-18T19:29:20.644576Z","level":"INFO","fields":{"message":"Received message 30 and ignored"},"target":"mavlink_network_node"}
{"timestamp":"2024-01-18T19:29:20.754600Z","level":"DEBUG","fields":{"message":"Received packet","driver":"udp_driver","json_packet":"{\"header\":{\"component_id\":1,\"sequence\":75,\"system_id\":1},\"msg\":{\"flags\":{\"bits\":0},\"sequence\":16,\"type\":\"CURRENT_EVENT_SEQUENCE\"},\"protocol_version\":{\"type\":\"V2\"}}"},"target":"network"}
{"timestamp":"2024-01-18T19:29:20.754837Z","level":"DEBUG","fields":{"message":"Send to network","driver":"lora_driver"},"target":"main"}
{"timestamp":"2024-01-18T19:29:20.765694Z","level":"DEBUG","fields":{"message":"Received packet","driver":"udp_driver","json_packet":"{\"header\":{\"component_id\":1,\"sequence\":76,\"system_id\":1},\"msg\":{\"pitch\":-0.003901412943378091,\"pitchspeed\":-0.0006979729514569044,\"roll\":0.010356083512306213,\"rollspeed\":-0.0001207257155328989,\"time_boot_ms\":14069,\"type\":\"ATTITUDE\",\"yaw\":-2.6661264896392822,\"yawspeed\":-0.0008505797013640404},\"protocol_version\":{\"type\":\"V2\"}}"},"target":"network"}
{"timestamp":"2024-01-18T19:29:20.765909Z","level":"INFO","fields":{"message":"Received message 30 and ignored"},"target":"mavlink_network_node"}
{"timestamp":"2024-01-18T19:29:20.864619Z","level":"DEBUG","fields":{"message":"Received packet","driver":"udp_driver","json_packet":"{\"header\":{\"component_id\":1,\"sequence\":77,\"system_id\":1},\"msg\":{\"autopilot\":{\"type\":\"MAV_AUTOPILOT_PX4\"},\"base_mode\":{\"bits\":29},\"custom_mode\":50593792,\"mavlink_version\":3,\"mavtype\":{\"type\":\"MAV_TYPE_QUADROTOR\"},\"system_status\":{\"type\":\"MAV_STATE_STANDBY\"},\"type\":\"HEARTBEAT\"},\"protocol_version\":{\"type\":\"V2\"}}"},"target":"network"}
{"timestamp":"2024-01-18T19:29:20.864837Z","level":"DEBUG","fields":{"message":"Send to network","driver":"lora_driver"},"target":"main"}
{"timestamp":"2024-01-18T19:29:20.886771Z","level":"DEBUG","fields":{"message":"Received packet","driver":"udp_driver","json_packet":"{\"header\":{\"component_id\":1,\"sequence\":78,\"system_id\":1},\"msg\":{\"pitch\":-0.0038967912551015615,\"pitchspeed\":0.0006121150217950344,\"roll\":0.01035592332482338,\"rollspeed\":-0.000537246698513627,\"time_boot_ms\":14193,\"type\":\"ATTITUDE\",\"yaw\":-2.6661505699157715,\"yawspeed\":-0.001422243658453226},\"protocol_version\":{\"type\":\"V2\"}}"},"target":"network"}
{"timestamp":"2024-01-18T19:29:20.886955Z","level":"INFO","fields":{"message":"Received message 30 and ignored"},"target":"mavlink_network_node"}
{"timestamp":"2024-01-18T19:29:20.975217Z","level":"DEBUG","fields":{"message":"close","time.busy":"551ms","time.idle":"20.6µs"},"target":"network","span":{"driver":"lora_driver","name":"Receiving"},"spans":[]}
{"timestamp":"2024-01-18T19:29:20.975382Z","level":"INFO","fields":{"message":"Transmit initiated","driver":"lora_driver"},"target":"network"}
{"timestamp":"2024-01-18T19:29:20.990035Z","level":"DEBUG","fields":{"message":"close","time.busy":"14.5ms","time.idle":"16.0µs"},"target":"network","span":{"driver":"lora_driver","name":"Prepare For TX"},"spans":[{"driver":"lora_driver","name":"Transmitting"}]}
{"timestamp":"2024-01-18T19:29:21.007526Z","level":"DEBUG","fields":{"message":"Received packet","driver":"udp_driver","json_packet":"{\"header\":{\"component_id\":1,\"sequence\":79,\"system_id\":1},\"msg\":{\"pitch\":-0.0038854465819895267,\"pitchspeed\":0.0007087807171046734,\"roll\":0.010341580025851727,\"rollspeed\":-0.0004742213059216738,\"time_boot_ms\":14311,\"type\":\"ATTITUDE\",\"yaw\":-2.6661946773529053,\"yawspeed\":-0.0009671295993030071},\"protocol_version\":{\"type\":\"V2\"}}"},"target":"network"}
{"timestamp":"2024-01-18T19:29:21.007723Z","level":"INFO","fields":{"message":"Received message 30 and ignored"},"target":"mavlink_network_node"}
{"timestamp":"2024-01-18T19:29:21.123502Z","level":"DEBUG","fields":{"message":"Sending packet","driver":"lora_driver","json_packet":"{\"header\":{\"component_id\":1,\"sequence\":63,\"system_id\":1},\"msg\":{\"autopilot\":{\"type\":\"MAV_AUTOPILOT_PX4\"},\"base_mode\":{\"bits\":29},\"custom_mode\":50593792,\"mavlink_version\":3,\"mavtype\":{\"type\":\"MAV_TYPE_QUADROTOR\"},\"system_status\":{\"type\":\"MAV_STATE_STANDBY\"},\"type\":\"HEARTBEAT\"},\"protocol_version\":{\"type\":\"V2\"}}"},"target":"network","span":{"driver":"lora_driver","name":"Transmitting"},"spans":[{"driver":"lora_driver","name":"Transmitting"}]}
{"timestamp":"2024-01-18T19:29:21.123767Z","level":"DEBUG","fields":{"message":"close","time.busy":"49.8ms","time.idle":"98.5ms"},"target":"network","span":{"driver":"lora_driver","name":"Transmitting"},"spans":[]}
{"timestamp":"2024-01-18T19:29:21.123889Z","level":"INFO","fields":{"message":"Transmit initiated","driver":"lora_driver"},"target":"network"}
{"timestamp":"2024-01-18T19:29:21.128562Z","level":"DEBUG","fields":{"message":"Received packet","driver":"udp_driver","json_packet":"{\"header\":{\"component_id\":1,\"sequence\":80,\"system_id\":1},\"msg\":{\"pitch\":-0.003879752242937684,\"pitchspeed\":0.00043141539208590984,\"roll\":0.010363714769482613,\"rollspeed\":-0.0004690347705036402,\"time_boot_ms\":14430,\"type\":\"ATTITUDE\",\"yaw\":-2.6662423610687256,\"yawspeed\":-0.0005597509443759918},\"protocol_version\":{\"type\":\"V2\"}}"},"target":"network"}
{"timestamp":"2024-01-18T19:29:21.128845Z","level":"INFO","fields":{"message":"Received message 30 and ignored"},"target":"mavlink_network_node"}
{"timestamp":"2024-01-18T19:29:21.139079Z","level":"DEBUG","fields":{"message":"close","time.busy":"15.0ms","time.idle":"18.8µs"},"target":"network","span":{"driver":"lora_driver","name":"Prepare For TX"},"spans":[{"driver":"lora_driver","name":"Transmitting"}]}
{"timestamp":"2024-01-18T19:29:21.233532Z","level":"DEBUG","fields":{"message":"Sending packet","driver":"lora_driver","json_packet":"{\"header\":{\"component_id\":1,\"sequence\":66,\"system_id\":1},\"msg\":{\"landed_state\":{\"type\":\"MAV_LANDED_STATE_ON_GROUND\"},\"type\":\"EXTENDED_SYS_STATE\",\"vtol_state\":{\"type\":\"MAV_VTOL_STATE_UNDEFINED\"}},\"protocol_version\":{\"type\":\"V2\"}}"},"target":"network","span":{"driver":"lora_driver","name":"Transmitting"},"spans":[{"driver":"lora_driver","name":"Transmitting"}]}
{"timestamp":"2024-01-18T19:29:21.233744Z","level":"DEBUG","fields":{"message":"close","time.busy":"44.1ms","time.idle":"65.7ms"},"target":"network","span":{"driver":"lora_driver","name":"Transmitting"},"spans":[]}
{"timestamp":"2024-01-18T19:29:21.260602Z","level":"DEBUG","fields":{"message":"Received packet","driver":"udp_driver","json_packet":"{\"header\":{\"component_id\":1,\"sequence\":81,\"system_id\":1},\"msg\":{\"pitch\":-0.003873370820656419,\"pitchspeed\":0.0005376082845032215,\"roll\":0.010364638641476631,\"rollspeed\":0.00018607580568641424,\"time_boot_ms\":14564,\"type\":\"ATTITUDE\",\"yaw\":-2.6662521362304688,\"yawspeed\":-0.0008487706072628498},\"protocol_version\":{\"type\":\"V2\"}}"},"target":"network"}
{"timestamp":"2024-01-18T19:29:21.260849Z","level":"INFO","fields":{"message":"Received message 30 and ignored"},"target":"mavlink_network_node"}
{"timestamp":"2024-01-18T19:29:21.266501Z","level":"DEBUG","fields":{"message":"close","time.busy":"32.2ms","time.idle":"14.7µs"},"target":"network","span":{"driver":"lora_driver","name":"Prepare For RX"},"spans":[{"driver":"lora_driver","name":"Receiving"}]}
