{"timestamp":"2024-02-11T12:54:28.011620Z","level":"DEBUG","fields":{"message":"Send to network","driver":"udp_driver"},"target":"main"}
{"timestamp":"2024-02-11T12:54:28.012025Z","level":"DEBUG","fields":{"message":"Sending packet","driver":"udp_driver","json_packet":"{\"header\":{\"component_id\":1,\"sequence\":0,\"system_id\":201},\"msg\":{\"autopilot\":{\"type\":\"MAV_AUTOPILOT_INVALID\"},\"base_mode\":{\"bits\":0},\"custom_mode\":0,\"mavlink_version\":3,\"mavtype\":{\"type\":\"MAV_TYPE_GCS\"},\"system_status\":{\"type\":\"MAV_STATE_UNINIT\"},\"type\":\"HEARTBEAT\"},\"protocol_version\":{\"type\":\"V2\"}}"},"target":"network"}
{"timestamp":"2024-02-11T12:54:28.103872Z","level":"DEBUG","fields":{"message":"close","time.busy":"30.6ms","time.idle":"27.1µs"},"target":"network","span":{"driver":"lora_driver","name":"Prepare For RX"},"spans":[]}
{"timestamp":"2024-02-11T12:54:28.104112Z","level":"DEBUG","fields":{"message":"Received packet","driver":"udp_driver","json_packet":"{\"header\":{\"component_id\":1,\"sequence\":148,\"system_id\":1},\"msg\":{\"arguments\":[0,0,0,16,0,128,0,0,0,192,59,129,255,192,59,129,255,0,0,0,0,0,0,0,0,0,0,0,0,0,0,0,0,0,0,0,0,0,0,0],\"destination_component\":0,\"destination_system\":0,\"event_time_boot_ms\":87582,\"id\":27825120,\"log_levels\":136,\"sequence\":9,\"type\":\"EVENT\"},\"protocol_version\":{\"type\":\"V2\"}}"},"target":"network"}
{"timestamp":"2024-02-11T12:54:28.104278Z","level":"DEBUG","fields":{"message":"Received packet","driver":"udp_driver","json_packet":"{\"header\":{\"component_id\":1,\"sequence\":149,\"system_id\":1},\"msg\":{\"arguments\":[60,0,126,0,20,0,0,0,0,0,0,0,0,0,0,0,0,0,0,0,0,0,0,0,0,0,0,0,0,0,0,0,0,0,0,0,0,0,0,0],\"destination_component\":0,\"destination_system\":0,\"event_time_boot_ms\":87582,\"id\":30612409,\"log_levels\":51,\"sequence\":10,\"type\":\"EVENT\"},\"protocol_version\":{\"type\":\"V2\"}}"},"target":"network"}
{"timestamp":"2024-02-11T12:54:28.104408Z","level":"DEBUG","fields":{"message":"Received packet","driver":"udp_driver","json_packet":"{\"header\":{\"component_id\":1,\"sequence\":150,\"system_id\":1},\"msg\":{\"arguments\":[56,0,0,0,20,0,0,0,0,0,0,0,0,0,0,0,0,0,0,0,0,0,0,0,0,0,0,0,0,0,0,0,0,0,0,0,0,0,0,0],\"destination_component\":0,\"destination_system\":0,\"event_time_boot_ms\":87582,\"id\":26788467,\"log_levels\":51,\"sequence\":11,\"type\":\"EVENT\"},\"protocol_version\":{\"type\":\"V2\"}}"},"target":"network"}
{"timestamp":"2024-02-11T12:54:28.104546Z","level":"DEBUG","fields":{"message":"Received packet","driver":"udp_driver","json_packet":"{\"header\":{\"component_id\":1,\"sequence\":151,\"system_id\":1},\"msg\":{\"arguments\":[8,0,0,0,20,0,0,0,0,0,0,0,0,0,0,0,0,0,0,0,0,0,0,0,0,0,0,0,0,0,0,0,0,0,0,0,0,0,0,0],\"destination_component\":0,\"destination_system\":0,\"event_time_boot_ms\":87582,\"id\":17154777,\"log_levels\":102,\"sequence\":12,\"type\":\"EVENT\"},\"protocol_version\":{\"type\":\"V2\"}}"},"target":"network"}
{"timestamp":"2024-02-11T12:54:28.104669Z","level":"DEBUG","fields":{"message":"Received packet","driver":"udp_driver","json_packet":"{\"header\":{\"component_id\":1,\"sequence\":152,\"system_id\":1},\"msg\":{\"arguments\":[0,64,0,0,20,0,0,0,0,0,0,0,0,0,0,0,0,0,0,0,0,0,0,0,0,0,0,0,0,0,0,0,0,0,0,0,0,0,0,0],\"destination_component\":0,\"destination_system\":0,\"event_time_boot_ms\":87582,\"id\":19865031,\"log_levels\":51,\"sequence\":13,\"type\":\"EVENT\"},\"protocol_version\":{\"type\":\"V2\"}}"},"target":"network"}
{"timestamp":"2024-02-11T12:54:28.104793Z","level":"DEBUG","fields":{"message":"Received packet","driver":"udp_driver","json_packet":"{\"header\":{\"component_id\":1,\"sequence\":153,\"system_id\":1},\"msg\":{\"arguments\":[32,0,0,0,20,0,0,0,0,0,0,0,0,0,0,0,0,0,0,0,0,0,0,0,0,0,0,0,0,0,0,0,0,0,0,0,0,0,0,0],\"destination_component\":0,\"destination_system\":0,\"event_time_boot_ms\":87582,\"id\":16856624,\"log_levels\":102,\"sequence\":14,\"type\":\"EVENT\"},\"protocol_version\":{\"type\":\"V2\"}}"},"target":"network"}
{"timestamp":"2024-02-11T12:54:28.104916Z","level":"DEBUG","fields":{"message":"Received packet","driver":"udp_driver","json_packet":"{\"header\":{\"component_id\":1,\"sequence\":154,\"system_id\":1},\"msg\":{\"arguments\":[255,255,255,255,7,0,0,0,0,0,0,0,0,0,0,0,0,0,0,0,0,0,0,0,0,0,0,0,0,0,0,0,0,0,0,0,0,0,0,0],\"destination_component\":0,\"destination_system\":0,\"event_time_boot_ms\":87582,\"id\":17231145,\"log_levels\":68,\"sequence\":15,\"type\":\"EVENT\"},\"protocol_version\":{\"type\":\"V2\"}}"},"target":"network"}
{"timestamp":"2024-02-11T12:54:28.105031Z","level":"DEBUG","fields":{"message":"Received packet","driver":"udp_driver","json_packet":"{\"header\":{\"component_id\":1,\"sequence\":155,\"system_id\":1},\"msg\":{\"arguments\":[0,2,16,2,40,0,0,0,0,0,0,0,0,0,0,0,0,0,0,0,0,0,0,0,0,0,0,0,0,0,0,0,0,0,0,0,0,0,0,0],\"destination_component\":0,\"destination_system\":0,\"event_time_boot_ms\":87582,\"id\":18691879,\"log_levels\":136,\"sequence\":16,\"type\":\"EVENT\"},\"protocol_version\":{\"type\":\"V2\"}}"},"target":"network"}
{"timestamp":"2024-02-11T12:54:28.557020Z","level":"DEBUG","fields":{"message":"Received packet","driver":"udp_driver","json_packet":"{\"header\":{\"component_id\":1,\"sequence\":156,\"system_id\":1},\"msg\":{\"pitch\":0.00017063914856407791,\"pitchspeed\":4.8871152102947235e-6,\"roll\":0.007363468874245882,\"rollspeed\":-2.1540909074246883e-6,\"time_boot_ms\":88115,\"type\":\"ATTITUDE\",\"yaw\":2.6559298038482666,\"yawspeed\":0.00010972004383802414},\"protocol_version\":{\"type\":\"V2\"}}"},"target":"network"}
{"timestamp":"2024-02-11T12:54:28.608984Z","level":"DEBUG","fields":{"message":"Received packet","driver":"udp_driver","json_packet":"{\"header\":{\"component_id\":1,\"sequence\":157,\"system_id\":1},\"msg\":{\"autopilot\":{\"type\":\"MAV_AUTOPILOT_PX4\"},\"base_mode\":{\"bits\":29},\"custom_mode\":50593792,\"mavlink_version\":3,\"mavtype\":{\"type\":\"MAV_TYPE_QUADROTOR\"},\"system_status\":{\"type\":\"MAV_STATE_STANDBY\"},\"type\":\"HEARTBEAT\"},\"protocol_version\":{\"type\":\"V2\"}}"},"target":"network"}
{"timestamp":"2024-02-11T12:54:28.609123Z","level":"DEBUG","fields":{"message":"Send to main","driver":"udp_driver"},"target":"network"}
{"timestamp":"2024-02-11T12:54:28.609217Z","level":"DEBUG","fields":{"message":"close","time.busy":"10.4µs","time.idle":"505ms"},"target":"mavlink_network_node::network::lora_network_interface","span":{"driver":"lora_driver","target":"network","name":"Wait For IRQ"},"spans":[]}
{"timestamp":"2024-02-11T12:54:28.624187Z","level":"DEBUG","fields":{"message":"close","time.busy":"14.9ms","time.idle":"11.7µs"},"target":"network","span":{"driver":"lora_driver","name":"Prepare For TX"},"spans":[]}
{"timestamp":"2024-02-11T12:54:28.672347Z","level":"DEBUG","fields":{"message":"Sending packet","driver":"lora_driver","json_packet":"{\"header\":{\"component_id\":1,\"sequence\":157,\"system_id\":1},\"msg\":{\"autopilot\":{\"type\":\"MAV_AUTOPILOT_PX4\"},\"base_mode\":{\"bits\":29},\"custom_mode\":50593792,\"mavlink_version\":3,\"mavtype\":{\"type\":\"MAV_TYPE_QUADROTOR\"},\"system_status\":{\"type\":\"MAV_STATE_STANDBY\"},\"type\":\"HEARTBEAT\"},\"protocol_version\":{\"type\":\"V2\"}}"},"target":"network","span":{"driver":"lora_driver","name":"Transmitting"},"spans":[{"driver":"lora_driver","name":"Transmitting"}]}
{"timestamp":"2024-02-11T12:54:28.672506Z","level":"DEBUG","fields":{"message":"close","time.busy":"26.8ms","time.idle":"21.4ms"},"target":"network","span":{"driver":"lora_driver","name":"Transmitting"},"spans":[]}
{"timestamp":"2024-02-11T12:54:28.706280Z","level":"DEBUG","fields":{"message":"close","time.busy":"30.6ms","time.idle":"12.4µs"},"target":"network","span":{"driver":"lora_driver","name":"Prepare For RX"},"spans":[]}
{"timestamp":"2024-02-11T12:54:28.759636Z","level":"DEBUG","fields":{"message":"Received packet","driver":"udp_driver","json_packet":"{\"header\":{\"component_id\":1,\"sequence\":158,\"system_id\":1},\"msg\":{\"altitude_amsl\":316.18524169921875,\"altitude_local\":0.10787791013717651,\"altitude_monotonic\":316.18524169921875,\"altitude_relative\":0.10787791013717651,\"altitude_terrain\":null,\"bottom_clearance\":null,\"time_usec\":88318971,\"type\":\"ALTITUDE\"},\"protocol_version\":{\"type\":\"V2\"}}"},"target":"network"}
{"timestamp":"2024-02-11T12:54:28.759762Z","level":"DEBUG","fields":{"message":"Received packet","driver":"udp_driver","json_packet":"{\"header\":{\"component_id\":1,\"sequence\":159,\"system_id\":1},\"msg\":{\"pitch\":0.0001801798352971673,\"pitchspeed\":0.0003469602670520544,\"roll\":0.007337553426623344,\"rollspeed\":0.00011615833500400186,\"time_boot_ms\":88318,\"type\":\"ATTITUDE\",\"yaw\":2.6559691429138184,\"yawspeed\":0.00025813421234488487},\"protocol_version\":{\"type\":\"V2\"}}"},"target":"network"}
{"timestamp":"2024-02-11T12:54:28.759891Z","level":"DEBUG","fields":{"message":"Received packet","driver":"udp_driver","json_packet":"{\"header\":{\"component_id\":1,\"sequence\":160,\"system_id\":1},\"msg\":{\"landed_state\":{\"type\":\"MAV_LANDED_STATE_ON_GROUND\"},\"type\":\"EXTENDED_SYS_STATE\",\"vtol_state\":{\"type\":\"MAV_VTOL_STATE_UNDEFINED\"}},\"protocol_version\":{\"type\":\"V2\"}}"},"target":"network"}
{"timestamp":"2024-02-11T12:54:28.759975Z","level":"DEBUG","fields":{"message":"Send to main","driver":"udp_driver"},"target":"network"}
{"timestamp":"2024-02-11T12:54:28.760049Z","level":"DEBUG","fields":{"message":"Received packet","driver":"udp_driver","json_packet":"{\"header\":{\"component_id\":1,\"sequence\":161,\"system_id\":1},\"msg\":{\"battery_remaining\":-1,\"current_battery\":-1,\"drop_rate_comm\":0,\"errors_comm\":0,\"errors_count1\":0,\"errors_count2\":0,\"errors_count3\":0,\"errors_count4\":0,\"load\":323,\"onboard_control_sensors_enabled\":{\"bits\":2162701},\"onboard_control_sensors_health\":{\"bits\":572555327},\"onboard_control_sensors_present\":{\"bits\":2097165},\"type\":\"SYS_STATUS\",\"voltage_battery\":65535},\"protocol_version\":{\"type\":\"V2\"}}"},"target":"network"}
{"timestamp":"2024-02-11T12:54:28.760054Z","level":"DEBUG","fields":{"message":"close","time.busy":"7.83µs","time.idle":"53.7ms"},"target":"mavlink_network_node::network::lora_network_interface","span":{"driver":"lora_driver","target":"network","name":"Wait For IRQ"},"spans":[]}
{"timestamp":"2024-02-11T12:54:28.760172Z","level":"DEBUG","fields":{"message":"Send to main","driver":"udp_driver"},"target":"network"}
{"timestamp":"2024-02-11T12:54:28.760241Z","level":"DEBUG","fields":{"message":"Received packet","driver":"udp_driver","json_packet":"{\"header\":{\"component_id\":1,\"sequence\":162,\"system_id\":1},\"msg\":{\"airspeed\":0.0,\"alt\":316.18524169921875,\"climb\":0.005509508308023214,\"groundspeed\":0.0011344357626512647,\"heading\":152,\"throttle\":0,\"type\":\"VFR_HUD\"},\"protocol_version\":{\"type\":\"V2\"}}"},"target":"network"}
{"timestamp":"2024-02-11T12:54:28.760375Z","level":"DEBUG","fields":{"message":"Received packet","driver":"udp_driver","json_packet":"{\"header\":{\"component_id\":1,\"sequence\":163,\"system_id\":1},\"msg\":{\"messages_lost\":0,\"messages_received\":1,\"messages_sent\":15,\"rx_buf\":0,\"rx_overflows\":0,\"rx_parse_err\":0,\"rx_rate\":20,\"timestamp\":88319240,\"tx_buf\":0,\"tx_overflows\":0,\"tx_rate\":312,\"type\":\"LINK_NODE_STATUS\"},\"protocol_version\":{\"type\":\"V2\"}}"},"target":"network"}
{"timestamp":"2024-02-11T12:54:28.760480Z","level":"DEBUG","fields":{"message":"Send to main","driver":"udp_driver"},"target":"network"}
{"timestamp":"2024-02-11T12:54:28.775082Z","level":"DEBUG","fields":{"message":"close","time.busy":"14.9ms","time.idle":"10.3µs"},"target":"network","span":{"driver":"lora_driver","name":"Prepare For TX"},"spans":[]}
{"timestamp":"2024-02-11T12:54:28.815004Z","level":"DEBUG","fields":{"message":"Sending packet","driver":"lora_driver","json_packet":"{\"header\":{\"component_id\":1,\"sequence\":160,\"system_id\":1},\"msg\":{\"landed_state\":{\"type\":\"MAV_LANDED_STATE_ON_GROUND\"},\"type\":\"EXTENDED_SYS_STATE\",\"vtol_state\":{\"type\":\"MAV_VTOL_STATE_UNDEFINED\"}},\"protocol_version\":{\"type\":\"V2\"}}"},"target":"network","span":{"driver":"lora_driver","name":"Transmitting"},"spans":[{"driver":"lora_driver","name":"Transmitting"}]}
{"timestamp":"2024-02-11T12:54:28.815151Z","level":"DEBUG","fields":{"message":"close","time.busy":"23.7ms","time.idle":"16.3ms"},"target":"network","span":{"driver":"lora_driver","name":"Transmitting"},"spans":[]}
{"timestamp":"2024-02-11T12:54:28.861720Z","level":"DEBUG","fields":{"message":"Received packet","driver":"udp_driver","json_packet":"{\"header\":{\"component_id\":1,\"sequence\":164,\"system_id\":1},\"msg\":{\"pitch\":0.00017526597366668284,\"pitchspeed\":0.0005881590768694878,\"roll\":0.007344215176999569,\"rollspeed\":-0.00014029344310984015,\"time_boot_ms\":88417,\"type\":\"ATTITUDE\",\"yaw\":2.6559526920318604,\"yawspeed\":-6.249174475669861e-6},\"protocol_version\":{\"type\":\"V2\"}}"},"target":"network"}
{"timestamp":"2024-02-11T12:54:28.891172Z","level":"DEBUG","fields":{"message":"Sending packet","driver":"lora_driver","json_packet":"{\"header\":{\"component_id\":1,\"sequence\":161,\"system_id\":1},\"msg\":{\"battery_remaining\":-1,\"current_battery\":-1,\"drop_rate_comm\":0,\"errors_comm\":0,\"errors_count1\":0,\"errors_count2\":0,\"errors_count3\":0,\"errors_count4\":0,\"load\":323,\"onboard_control_sensors_enabled\":{\"bits\":2162701},\"onboard_control_sensors_health\":{\"bits\":572555327},\"onboard_control_sensors_present\":{\"bits\":2097165},\"type\":\"SYS_STATUS\",\"voltage_battery\":65535},\"protocol_version\":{\"type\":\"V2\"}}"},"target":"network","span":{"driver":"lora_driver","name":"Transmitting"},"spans":[{"driver":"lora_driver","name":"Transmitting"}]}
{"timestamp":"2024-02-11T12:54:28.891355Z","level":"DEBUG","fields":{"message":"close","time.busy":"36.8ms","time.idle":"39.4ms"},"target":"network","span":{"driver":"lora_driver","name":"Transmitting"},"spans":[]}
{"timestamp":"2024-02-11T12:54:28.955525Z","level":"DEBUG","fields":{"message":"Sending packet","driver":"lora_driver","json_packet":"{\"header\":{\"component_id\":1,\"sequence\":163,\"system_id\":1},\"msg\":{\"messages_lost\":0,\"messages_received\":1,\"messages_sent\":15,\"rx_buf\":0,\"rx_overflows\":0,\"rx_parse_err\":0,\"rx_rate\":20,\"timestamp\":88319240,\"tx_buf\":0,\"tx_overflows\":0,\"tx_rate\":312,\"type\":\"LINK_NODE_STATUS\"},\"protocol_version\":{\"type\":\"V2\"}}"},"target":"network","span":{"driver":"lora_driver","name":"Transmitting"},"spans":[{"driver":"lora_driver","name":"Transmitting"}]}
{"timestamp":"2024-02-11T12:54:28.955724Z","level":"DEBUG","fields":{"message":"close","time.busy":"32.6ms","time.idle":"31.7ms"},"target":"network","span":{"driver":"lora_driver","name":"Transmitting"},"spans":[]}
{"timestamp":"2024-02-11T12:54:28.989627Z","level":"DEBUG","fields":{"message":"close","time.busy":"30.6ms","time.idle":"16.9µs"},"target":"network","span":{"driver":"lora_driver","name":"Prepare For RX"},"spans":[]}
{"timestamp":"2024-02-11T12:54:28.989792Z","level":"DEBUG","fields":{"message":"Received packet","driver":"udp_driver","json_packet":"{\"header\":{\"component_id\":1,\"sequence\":165,\"system_id\":1},\"msg\":{\"pitch\":0.00018889232887886465,\"pitchspeed\":0.0004340987652540207,\"roll\":0.007320549804717302,\"rollspeed\":-0.0004542748793028295,\"time_boot_ms\":88516,\"type\":\"ATTITUDE\",\"yaw\":2.6559371948242188,\"yawspeed\":0.00042990781366825104},\"protocol_version\":{\"type\":\"V2\"}}"},"target":"network"}
{"timestamp":"2024-02-11T12:54:29.013036Z","level":"DEBUG","fields":{"message":"Send to network","driver":"udp_driver"},"target":"main"}
{"timestamp":"2024-02-11T12:54:29.013150Z","level":"DEBUG","fields":{"message":"Sending packet","driver":"udp_driver","json_packet":"{\"header\":{\"component_id\":1,\"sequence\":1,\"system_id\":201},\"msg\":{\"autopilot\":{\"type\":\"MAV_AUTOPILOT_INVALID\"},\"base_mode\":{\"bits\":0},\"custom_mode\":0,\"mavlink_version\":3,\"mavtype\":{\"type\":\"MAV_TYPE_GCS\"},\"system_status\":{\"type\":\"MAV_STATE_UNINIT\"},\"type\":\"HEARTBEAT\"},\"protocol_version\":{\"type\":\"V2\"}}"},"target":"network"}
{"timestamp":"2024-02-11T12:54:29.059903Z","level":"DEBUG","fields":{"message":"Received packet","driver":"udp_driver","json_packet":"{\"header\":{\"component_id\":1,\"sequence\":166,\"system_id\":1},\"msg\":{\"pitch\":0.0001848423562478274,\"pitchspeed\":0.00010447017848491669,\"roll\":0.007299620192497969,\"rollspeed\":0.0005109292105771601,\"time_boot_ms\":88615,\"type\":\"ATTITUDE\",\"yaw\":2.655923843383789,\"yawspeed\":-0.0008072862401604652},\"protocol_version\":{\"type\":\"V2\"}}"},"target":"network"}
{"timestamp":"2024-02-11T12:54:29.162537Z","level":"DEBUG","fields":{"message":"Received packet","driver":"udp_driver","json_packet":"{\"header\":{\"component_id\":1,\"sequence\":167,\"system_id\":1},\"msg\":{\"pitch\":0.00019236809748690575,\"pitchspeed\":-0.00006383098661899567,\"roll\":0.0072999997064471245,\"rollspeed\":-0.0008217542781494558,\"time_boot_ms\":88719,\"type\":\"ATTITUDE\",\"yaw\":2.6558926105499268,\"yawspeed\":0.0001796330325305462},\"protocol_version\":{\"type\":\"V2\"}}"},"target":"network"}
{"timestamp":"2024-02-11T12:54:29.261492Z","level":"DEBUG","fields":{"message":"Received packet","driver":"udp_driver","json_packet":"{\"header\":{\"component_id\":1,\"sequence\":168,\"system_id\":1},\"msg\":{\"pitch\":0.00021783041302114725,\"pitchspeed\":0.00004880037158727646,\"roll\":0.00729686813428998,\"rollspeed\":-0.00009738927474245429,\"time_boot_ms\":88818,\"type\":\"ATTITUDE\",\"yaw\":2.6558756828308105,\"yawspeed\":-0.0004938440397381783},\"protocol_version\":{\"type\":\"V2\"}}"},"target":"network"}
{"timestamp":"2024-02-11T12:54:29.360586Z","level":"DEBUG","fields":{"message":"Received packet","driver":"udp_driver","json_packet":"{\"header\":{\"component_id\":1,\"sequence\":169,\"system_id\":1},\"msg\":{\"pitch\":0.00022665738651994616,\"pitchspeed\":-0.00009557371959090233,\"roll\":0.0072867898270487785,\"rollspeed\":-0.00033717096084728837,\"time_boot_ms\":88917,\"type\":\"ATTITUDE\",\"yaw\":2.6558611392974854,\"yawspeed\":0.00014390796422958374},\"protocol_version\":{\"type\":\"V2\"}}"},"target":"network"}
{"timestamp":"2024-02-11T12:54:29.460531Z","level":"DEBUG","fields":{"message":"Received packet","driver":"udp_driver","json_packet":"{\"header\":{\"component_id\":1,\"sequence\":170,\"system_id\":1},\"msg\":{\"pitch\":0.00023376857279799879,\"pitchspeed\":0.000598919577896595,\"roll\":0.007291233632713556,\"rollspeed\":-0.00025886629009619355,\"time_boot_ms\":89016,\"type\":\"ATTITUDE\",\"yaw\":2.6558475494384766,\"yawspeed\":-0.00005286000669002533},\"protocol_version\":{\"type\":\"V2\"}}"},"target":"network"}
{"timestamp":"2024-02-11T12:54:29.537034Z","level":"DEBUG","fields":{"message":"Received packet","driver":"udp_driver","json_packet":"{\"header\":{\"component_id\":1,\"sequence\":171,\"system_id\":1},\"msg\":{\"flags\":{\"bits\":0},\"sequence\":16,\"type\":\"CURRENT_EVENT_SEQUENCE\"},\"protocol_version\":{\"type\":\"V2\"}}"},"target":"network"}
{"timestamp":"2024-02-11T12:54:29.537149Z","level":"DEBUG","fields":{"message":"Send to main","driver":"udp_driver"},"target":"network"}
{"timestamp":"2024-02-11T12:54:29.537231Z","level":"DEBUG","fields":{"message":"close","time.busy":"9.54µs","time.idle":"548ms"},"target":"mavlink_network_node::network::lora_network_interface","span":{"driver":"lora_driver","target":"network","name":"Wait For IRQ"},"spans":[]}
{"timestamp":"2024-02-11T12:54:29.552179Z","level":"DEBUG","fields":{"message":"close","time.busy":"14.9ms","time.idle":"11.5µs"},"target":"network","span":{"driver":"lora_driver","name":"Prepare For TX"},"spans":[]}
{"timestamp":"2024-02-11T12:54:29.560855Z","level":"DEBUG","fields":{"message":"Received packet","driver":"udp_driver","json_packet":"{\"header\":{\"component_id\":1,\"sequence\":172,\"system_id\":1},\"msg\":{\"pitch\":0.00024346074496861547,\"pitchspeed\":0.00035632518120110035,\"roll\":0.007290772162377834,\"rollspeed\":-0.00008195970440283418,\"time_boot_ms\":89115,\"type\":\"ATTITUDE\",\"yaw\":2.6558351516723633,\"yawspeed\":-0.00010724086314439774},\"protocol_version\":{\"type\":\"V2\"}}"},"target":"network"}
{"timestamp":"2024-02-11T12:54:29.591629Z","level":"DEBUG","fields":{"message":"Sending packet","driver":"lora_driver","json_packet":"{\"header\":{\"component_id\":1,\"sequence\":171,\"system_id\":1},\"msg\":{\"flags\":{\"bits\":0},\"sequence\":16,\"type\":\"CURRENT_EVENT_SEQUENCE\"},\"protocol_version\":{\"type\":\"V2\"}}"},"target":"network","span":{"driver":"lora_driver","name":"Transmitting"},"spans":[{"driver":"lora_driver","name":"Transmitting"}]}
{"timestamp":"2024-02-11T12:54:29.591773Z","level":"DEBUG","fields":{"message":"close","time.busy":"23.2ms","time.idle":"16.3ms"},"target":"network","span":{"driver":"lora_driver","name":"Transmitting"},"spans":[]}
{"timestamp":"2024-02-11T12:54:29.625538Z","level":"DEBUG","fields":{"message":"close","time.busy":"30.6ms","time.idle":"13.0µs"},"target":"network","span":{"driver":"lora_driver","name":"Prepare For RX"},"spans":[]}
{"timestamp":"2024-02-11T12:54:29.625681Z","level":"DEBUG","fields":{"message":"Received packet","driver":"udp_driver","json_packet":"{\"header\":{\"component_id\":1,\"sequence\":173,\"system_id\":1},\"msg\":{\"autopilot\":{\"type\":\"MAV_AUTOPILOT_PX4\"},\"base_mode\":{\"bits\":29},\"custom_mode\":50593792,\"mavlink_version\":3,\"mavtype\":{\"type\":\"MAV_TYPE_QUADROTOR\"},\"system_status\":{\"type\":\"MAV_STATE_STANDBY\"},\"type\":\"HEARTBEAT\"},\"protocol_version\":{\"type\":\"V2\"}}"},"target":"network"}
{"timestamp":"2024-02-11T12:54:29.625834Z","level":"DEBUG","fields":{"message":"Send to main","driver":"udp_driver"},"target":"network"}
{"timestamp":"2024-02-11T12:54:29.625924Z","level":"DEBUG","fields":{"message":"close","time.busy":"5.57µs","time.idle":"306µs"},"target":"mavlink_network_node::network::lora_network_interface","span":{"driver":"lora_driver","target":"network","name":"Wait For IRQ"},"spans":[]}
{"timestamp":"2024-02-11T12:54:29.640857Z","level":"DEBUG","fields":{"message":"close","time.busy":"14.9ms","time.idle":"10.3µs"},"target":"network","span":{"driver":"lora_driver","name":"Prepare For TX"},"spans":[]}
{"timestamp":"2024-02-11T12:54:29.663134Z","level":"DEBUG","fields":{"message":"Received packet","driver":"udp_driver","json_packet":"{\"header\":{\"component_id\":1,\"sequence\":174,\"system_id\":1},\"msg\":{\"pitch\":0.0002479155082255602,\"pitchspeed\":0.00011223368346691132,\"roll\":0.007292159367352724,\"rollspeed\":-0.0005039587267674506,\"time_boot_ms\":89219,\"type\":\"ATTITUDE\",\"yaw\":2.655832529067993,\"yawspeed\":-0.00016869418323040009},\"protocol_version\":{\"type\":\"V2\"}}"},"target":"network"}
{"timestamp":"2024-02-11T12:54:29.689008Z","level":"DEBUG","fields":{"message":"Sending packet","driver":"lora_driver","json_packet":"{\"header\":{\"component_id\":1,\"sequence\":173,\"system_id\":1},\"msg\":{\"autopilot\":{\"type\":\"MAV_AUTOPILOT_PX4\"},\"base_mode\":{\"bits\":29},\"custom_mode\":50593792,\"mavlink_version\":3,\"mavtype\":{\"type\":\"MAV_TYPE_QUADROTOR\"},\"system_status\":{\"type\":\"MAV_STATE_STANDBY\"},\"type\":\"HEARTBEAT\"},\"protocol_version\":{\"type\":\"V2\"}}"},"target":"network","span":{"driver":"lora_driver","name":"Transmitting"},"spans":[{"driver":"lora_driver","name":"Transmitting"}]}
{"timestamp":"2024-02-11T12:54:29.689161Z","level":"DEBUG","fields":{"message":"close","time.busy":"26.9ms","time.idle":"21.4ms"},"target":"network","span":{"driver":"lora_driver","name":"Transmitting"},"spans":[]}
{"timestamp":"2024-02-11T12:54:29.722929Z","level":"DEBUG","fields":{"message":"close","time.busy":"30.6ms","time.idle":"12.5µs"},"target":"network","span":{"driver":"lora_driver","name":"Prepare For RX"},"spans":[]}
{"timestamp":"2024-02-11T12:54:29.762317Z","level":"DEBUG","fields":{"message":"Received packet","driver":"udp_driver","json_packet":"{\"header\":{\"component_id\":1,\"sequence\":175,\"system_id\":1},\"msg\":{\"pitch\":0.0002652009134180844,\"pitchspeed\":0.00036406517028808594,\"roll\":0.0072685470804572105,\"rollspeed\":-0.0003565275692380965,\"time_boot_ms\":89318,\"type\":\"ATTITUDE\",\"yaw\":2.6558330059051514,\"yawspeed\":-0.00004009483382105827},\"protocol_version\":{\"type\":\"V2\"}}"},"target":"network"}
{"timestamp":"2024-02-11T12:54:29.762439Z","level":"DEBUG","fields":{"message":"Received packet","driver":"udp_driver","json_packet":"{\"header\":{\"component_id\":1,\"sequence\":176,\"system_id\":1},\"msg\":{\"airspeed\":0.0,\"alt\":316.1535339355469,\"climb\":0.006696632597595453,\"groundspeed\":0.002068757778033614,\"heading\":152,\"throttle\":0,\"type\":\"VFR_HUD\"},\"protocol_version\":{\"type\":\"V2\"}}"},"target":"network"}
{"timestamp":"2024-02-11T12:54:29.762607Z","level":"DEBUG","fields":{"message":"Received packet","driver":"udp_driver","json_packet":"{\"header\":{\"component_id\":1,\"sequence\":177,\"system_id\":1},\"msg\":{\"messages_lost\":0,\"messages_received\":2,\"messages_sent\":29,\"rx_buf\":0,\"rx_overflows\":0,\"rx_parse_err\":0,\"rx_rate\":20,\"timestamp\":89320051,\"tx_buf\":0,\"tx_overflows\":0,\"tx_rate\":605,\"type\":\"LINK_NODE_STATUS\"},\"protocol_version\":{\"type\":\"V2\"}}"},"target":"network"}
{"timestamp":"2024-02-11T12:54:29.762766Z","level":"DEBUG","fields":{"message":"Send to main","driver":"udp_driver"},"target":"network"}
{"timestamp":"2024-02-11T12:54:29.762885Z","level":"DEBUG","fields":{"message":"close","time.busy":"6.97µs","time.idle":"39.9ms"},"target":"mavlink_network_node::network::lora_network_interface","span":{"driver":"lora_driver","target":"network","name":"Wait For IRQ"},"spans":[]}
{"timestamp":"2024-02-11T12:54:29.777995Z","level":"DEBUG","fields":{"message":"close","time.busy":"14.9ms","time.idle":"39.1µs"},"target":"network","span":{"driver":"lora_driver","name":"Prepare For TX"},"spans":[]}
{"timestamp":"2024-02-11T12:54:29.841803Z","level":"DEBUG","fields":{"message":"Sending packet","driver":"lora_driver","json_packet":"{\"header\":{\"component_id\":1,\"sequence\":177,\"system_id\":1},\"msg\":{\"messages_lost\":0,\"messages_received\":2,\"messages_sent\":29,\"rx_buf\":0,\"rx_overflows\":0,\"rx_parse_err\":0,\"rx_rate\":20,\"timestamp\":89320051,\"tx_buf\":0,\"tx_overflows\":0,\"tx_rate\":605,\"type\":\"LINK_NODE_STATUS\"},\"protocol_version\":{\"type\":\"V2\"}}"},"target":"network","span":{"driver":"lora_driver","name":"Transmitting"},"spans":[{"driver":"lora_driver","name":"Transmitting"}]}
{"timestamp":"2024-02-11T12:54:29.841961Z","level":"DEBUG","fields":{"message":"close","time.busy":"32.3ms","time.idle":"31.6ms"},"target":"network","span":{"driver":"lora_driver","name":"Transmitting"},"spans":[]}
{"timestamp":"2024-02-11T12:54:29.876520Z","level":"DEBUG","fields":{"message":"close","time.busy":"31.3ms","time.idle":"14.3µs"},"target":"network","span":{"driver":"lora_driver","name":"Prepare For RX"},"spans":[]}
{"timestamp":"2024-02-11T12:54:29.876754Z","level":"DEBUG","fields":{"message":"Received packet","driver":"udp_driver","json_packet":"{\"header\":{\"component_id\":1,\"sequence\":178,\"system_id\":1},\"msg\":{\"pitch\":0.00026677382993511856,\"pitchspeed\":-0.00015972740948200226,\"roll\":0.007264171727001667,\"rollspeed\":0.00011108018225058913,\"time_boot_ms\":89417,\"type\":\"ATTITUDE\",\"yaw\":2.6558380126953125,\"yawspeed\":-0.00035570329055190086},\"protocol_version\":{\"type\":\"V2\"}}"},"target":"network"}
{"timestamp":"2024-02-11T12:54:29.963608Z","level":"DEBUG","fields":{"message":"Received packet","driver":"udp_driver","json_packet":"{\"header\":{\"component_id\":1,\"sequence\":179,\"system_id\":1},\"msg\":{\"pitch\":0.00027618760941550136,\"pitchspeed\":-0.00010222289711236954,\"roll\":0.00724558811634779,\"rollspeed\":-0.00022720691049471498,\"time_boot_ms\":89516,\"type\":\"ATTITUDE\",\"yaw\":2.6558070182800293,\"yawspeed\":0.000019058119505643845},\"protocol_version\":{\"type\":\"V2\"}}"},"target":"network"}
{"timestamp":"2024-02-11T12:54:30.014116Z","level":"DEBUG","fields":{"message":"Send to network","driver":"udp_driver"},"target":"main"}
{"timestamp":"2024-02-11T12:54:30.014409Z","level":"DEBUG","fields":{"message":"Sending packet","driver":"udp_driver","json_packet":"{\"header\":{\"component_id\":1,\"sequence\":2,\"system_id\":201},\"msg\":{\"autopilot\":{\"type\":\"MAV_AUTOPILOT_INVALID\"},\"base_mode\":{\"bits\":0},\"custom_mode\":0,\"mavlink_version\":3,\"mavtype\":{\"type\":\"MAV_TYPE_GCS\"},\"system_status\":{\"type\":\"MAV_STATE_UNINIT\"},\"type\":\"HEARTBEAT\"},\"protocol_version\":{\"type\":\"V2\"}}"},"target":"network"}
{"timestamp":"2024-02-11T12:54:30.062760Z","level":"DEBUG","fields":{"message":"Received packet","driver":"udp_driver","json_packet":"{\"header\":{\"component_id\":1,\"sequence\":180,\"system_id\":1},\"msg\":{\"pitch\":0.0002805176191031933,\"pitchspeed\":0.000270928256213665,\"roll\":0.007222604006528854,\"rollspeed\":-0.000026523659471422434,\"time_boot_ms\":89615,\"type\":\"ATTITUDE\",\"yaw\":2.655806541442871,\"yawspeed\":0.00018064305186271667},\"protocol_version\":{\"type\":\"V2\"}}"},"target":"network"}
{"timestamp":"2024-02-11T12:54:30.161887Z","level":"DEBUG","fields":{"message":"Received packet","driver":"udp_driver","json_packet":"{\"header\":{\"component_id\":1,\"sequence\":181,\"system_id\":1},\"msg\":{\"pitch\":0.00028009340167045593,\"pitchspeed\":0.0006551214028149843,\"roll\":0.007213016971945763,\"rollspeed\":0.00013622123515233397,\"time_boot_ms\":89714,\"type\":\"ATTITUDE\",\"yaw\":2.655771255493164,\"yawspeed\":-0.0003788643516600132},\"protocol_version\":{\"type\":\"V2\"}}"},"target":"network"}
{"timestamp":"2024-02-11T12:54:30.263964Z","level":"DEBUG","fields":{"message":"Received packet","driver":"udp_driver","json_packet":"{\"header\":{\"component_id\":1,\"sequence\":182,\"system_id\":1},\"msg\":{\"pitch\":0.0002866497670765966,\"pitchspeed\":0.00015074596740305424,\"roll\":0.007213572971522808,\"rollspeed\":-0.00016536243492737412,\"time_boot_ms\":89818,\"type\":\"ATTITUDE\",\"yaw\":2.6557743549346924,\"yawspeed\":-0.0002995128743350506},\"protocol_version\":{\"type\":\"V2\"}}"},"target":"network"}
{"timestamp":"2024-02-11T12:54:30.364196Z","level":"DEBUG","fields":{"message":"Received packet","driver":"udp_driver","json_packet":"{\"header\":{\"component_id\":1,\"sequence\":183,\"system_id\":1},\"msg\":{\"pitch\":0.0002819910296238959,\"pitchspeed\":-4.197005182504654e-6,\"roll\":0.007209113799035549,\"rollspeed\":-0.000607621215749532,\"time_boot_ms\":89917,\"type\":\"ATTITUDE\",\"yaw\":2.6557931900024414,\"yawspeed\":0.00007639778777956963},\"protocol_version\":{\"type\":\"V2\"}}"},"target":"network"}
{"timestamp":"2024-02-11T12:54:30.463331Z","level":"DEBUG","fields":{"message":"Received packet","driver":"udp_driver","json_packet":"{\"header\":{\"component_id\":1,\"sequence\":184,\"system_id\":1},\"msg\":{\"pitch\":0.0003022795426659286,\"pitchspeed\":0.0005860053934156895,\"roll\":0.007187428884208202,\"rollspeed\":-0.0009775359649211168,\"time_boot_ms\":90017,\"type\":\"ATTITUDE\",\"yaw\":2.65579891204834,\"yawspeed\":-0.00016984902322292328},\"protocol_version\":{\"type\":\"V2\"}}"},"target":"network"}
{"timestamp":"2024-02-11T12:54:30.562483Z","level":"DEBUG","fields":{"message":"Received packet","driver":"udp_driver","json_packet":"{\"header\":{\"component_id\":1,\"sequence\":185,\"system_id\":1},\"msg\":{\"pitch\":0.00031159623176790774,\"pitchspeed\":0.000018747057765722275,\"roll\":0.007184620480984449,\"rollspeed\":0.00033514079404994845,\"time_boot_ms\":90116,\"type\":\"ATTITUDE\",\"yaw\":2.6557650566101074,\"yawspeed\":-0.0003593442961573601},\"protocol_version\":{\"type\":\"V2\"}}"},"target":"network"}
{"timestamp":"2024-02-11T12:54:30.613635Z","level":"DEBUG","fields":{"message":"Received packet","driver":"udp_driver","json_packet":"{\"header\":{\"component_id\":1,\"sequence\":186,\"system_id\":1},\"msg\":{\"autopilot\":{\"type\":\"MAV_AUTOPILOT_PX4\"},\"base_mode\":{\"bits\":29},\"custom_mode\":50593792,\"mavlink_version\":3,\"mavtype\":{\"type\":\"MAV_TYPE_QUADROTOR\"},\"system_status\":{\"type\":\"MAV_STATE_STANDBY\"},\"type\":\"HEARTBEAT\"},\"protocol_version\":{\"type\":\"V2\"}}"},"target":"network"}
{"timestamp":"2024-02-11T12:54:30.613941Z","level":"DEBUG","fields":{"message":"Send to main","driver":"udp_driver"},"target":"network"}
{"timestamp":"2024-02-11T12:54:30.614206Z","level":"DEBUG","fields":{"message":"close","time.busy":"57.3µs","time.idle":"738ms"},"target":"mavlink_network_node::network::lora_network_interface","span":{"driver":"lora_driver","target":"network","name":"Wait For IRQ"},"spans":[]}
{"timestamp":"2024-02-11T12:54:30.630051Z","level":"DEBUG","fields":{"message":"close","time.busy":"15.7ms","time.idle":"24.7µs"},"target":"network","span":{"driver":"lora_driver","name":"Prepare For TX"},"spans":[]}
{"timestamp":"2024-02-11T12:54:30.664659Z","level":"DEBUG","fields":{"message":"Received packet","driver":"udp_driver","json_packet":"{\"header\":{\"component_id\":1,\"sequence\":187,\"system_id\":1},\"msg\":{\"pitch\":0.0003467402420938015,\"pitchspeed\":0.00031599029898643494,\"roll\":0.007198503240942955,\"rollspeed\":-0.00035229447530582547,\"time_boot_ms\":90220,\"type\":\"ATTITUDE\",\"yaw\":2.6557416915893555,\"yawspeed\":-0.00011008419096469879},\"protocol_version\":{\"type\":\"V2\"}}"},"target":"network"}
{"timestamp":"2024-02-11T12:54:30.679306Z","level":"DEBUG","fields":{"message":"Sending packet","driver":"lora_driver","json_packet":"{\"header\":{\"component_id\":1,\"sequence\":186,\"system_id\":1},\"msg\":{\"autopilot\":{\"type\":\"MAV_AUTOPILOT_PX4\"},\"base_mode\":{\"bits\":29},\"custom_mode\":50593792,\"mavlink_version\":3,\"mavtype\":{\"type\":\"MAV_TYPE_QUADROTOR\"},\"system_status\":{\"type\":\"MAV_STATE_STANDBY\"},\"type\":\"HEARTBEAT\"},\"protocol_version\":{\"type\":\"V2\"}}"},"target":"network","span":{"driver":"lora_driver","name":"Transmitting"},"spans":[{"driver":"lora_driver","name":"Transmitting"}]}
{"timestamp":"2024-02-11T12:54:30.679639Z","level":"DEBUG","fields":{"message":"close","time.busy":"27.9ms","time.idle":"21.5ms"},"target":"network","span":{"driver":"lora_driver","name":"Transmitting"},"spans":[]}
{"timestamp":"2024-02-11T12:54:30.714350Z","level":"DEBUG","fields":{"message":"close","time.busy":"31.4ms","time.idle":"22.6µs"},"target":"network","span":{"driver":"lora_driver","name":"Prepare For RX"},"spans":[]}
{"timestamp":"2024-02-11T12:54:30.764089Z","level":"DEBUG","fields":{"message":"Received packet","driver":"udp_driver","json_packet":"{\"header\":{\"component_id\":1,\"sequence\":188,\"system_id\":1},\"msg\":{\"altitude_amsl\":316.211669921875,\"altitude_local\":0.1857684999704361,\"altitude_monotonic\":316.211669921875,\"altitude_relative\":0.1857684999704361,\"altitude_terrain\":null,\"bottom_clearance\":null,\"time_usec\":90319894,\"type\":\"ALTITUDE\"},\"protocol_version\":{\"type\":\"V2\"}}"},"target":"network"}
{"timestamp":"2024-02-11T12:54:30.764418Z","level":"DEBUG","fields":{"message":"Received packet","driver":"udp_driver","json_packet":"{\"header\":{\"component_id\":1,\"sequence\":189,\"system_id\":1},\"msg\":{\"pitch\":0.0003553601272869855,\"pitchspeed\":0.00023362226784229279,\"roll\":0.0071934848092496395,\"rollspeed\":-0.00022557220654562116,\"time_boot_ms\":90319,\"type\":\"ATTITUDE\",\"yaw\":2.6557204723358154,\"yawspeed\":-0.000247797928750515},\"protocol_version\":{\"type\":\"V2\"}}"},"target":"network"}
{"timestamp":"2024-02-11T12:54:30.764789Z","level":"DEBUG","fields":{"message":"Received packet","driver":"udp_driver","json_packet":"{\"header\":{\"component_id\":1,\"sequence\":190,\"system_id\":1},\"msg\":{\"airspeed\":0.0,\"alt\":316.211669921875,\"climb\":0.005655145738273859,\"groundspeed\":0.002279495820403099,\"heading\":152,\"throttle\":0,\"type\":\"VFR_HUD\"},\"protocol_version\":{\"type\":\"V2\"}}"},"target":"network"}
{"timestamp":"2024-02-11T12:54:30.765219Z","level":"DEBUG","fields":{"message":"Received packet","driver":"udp_driver","json_packet":"{\"header\":{\"component_id\":1,\"sequence\":191,\"system_id\":1},\"msg\":{\"messages_lost\":0,\"messages_received\":3,\"messages_sent\":43,\"rx_buf\":0,\"rx_overflows\":0,\"rx_parse_err\":0,\"rx_rate\":20,\"timestamp\":90319967,\"tx_buf\":0,\"tx_overflows\":0,\"tx_rate\":605,\"type\":\"LINK_NODE_STATUS\"},\"protocol_version\":{\"type\":\"V2\"}}"},"target":"network"}
{"timestamp":"2024-02-11T12:54:30.765541Z","level":"DEBUG","fields":{"message":"Send to main","driver":"udp_driver"},"target":"network"}
{"timestamp":"2024-02-11T12:54:30.765789Z","level":"DEBUG","fields":{"message":"close","time.busy":"40.5µs","time.idle":"51.3ms"},"target":"mavlink_network_node::network::lora_network_interface","span":{"driver":"lora_driver","target":"network","name":"Wait For IRQ"},"spans":[]}
{"timestamp":"2024-02-11T12:54:30.781395Z","level":"DEBUG","fields":{"message":"close","time.busy":"15.4ms","time.idle":"23.0µs"},"target":"network","span":{"driver":"lora_driver","name":"Prepare For TX"},"spans":[]}
{"timestamp":"2024-02-11T12:54:30.846094Z","level":"DEBUG","fields":{"message":"Sending packet","driver":"lora_driver","json_packet":"{\"header\":{\"component_id\":1,\"sequence\":191,\"system_id\":1},\"msg\":{\"messages_lost\":0,\"messages_received\":3,\"messages_sent\":43,\"rx_buf\":0,\"rx_overflows\":0,\"rx_parse_err\":0,\"rx_rate\":20,\"timestamp\":90319967,\"tx_buf\":0,\"tx_overflows\":0,\"tx_rate\":605,\"type\":\"LINK_NODE_STATUS\"},\"protocol_version\":{\"type\":\"V2\"}}"},"target":"network","span":{"driver":"lora_driver","name":"Transmitting"},"spans":[{"driver":"lora_driver","name":"Transmitting"}]}
{"timestamp":"2024-02-11T12:54:30.846554Z","level":"DEBUG","fields":{"message":"close","time.busy":"33.3ms","time.idle":"31.7ms"},"target":"network","span":{"driver":"lora_driver","name":"Transmitting"},"spans":[]}
{"timestamp":"2024-02-11T12:54:30.881443Z","level":"DEBUG","fields":{"message":"close","time.busy":"31.6ms","time.idle":"22.5µs"},"target":"network","span":{"driver":"lora_driver","name":"Prepare For RX"},"spans":[]}
{"timestamp":"2024-02-11T12:54:30.881696Z","level":"DEBUG","fields":{"message":"Received packet","driver":"udp_driver","json_packet":"{\"header\":{\"component_id\":1,\"sequence\":192,\"system_id\":1},\"msg\":{\"pitch\":0.0003535370051395148,\"pitchspeed\":-0.000507427379488945,\"roll\":0.007186817936599255,\"rollspeed\":-0.0001415194128639996,\"time_boot_ms\":90418,\"type\":\"ATTITUDE\",\"yaw\":2.6556856632232666,\"yawspeed\":-0.00004103453829884529},\"protocol_version\":{\"type\":\"V2\"}}"},"target":"network"}
{"timestamp":"2024-02-11T12:54:30.965036Z","level":"DEBUG","fields":{"message":"Received packet","driver":"udp_driver","json_packet":"{\"header\":{\"component_id\":1,\"sequence\":193,\"system_id\":1},\"msg\":{\"pitch\":0.000369336805306375,\"pitchspeed\":0.0005517164245247841,\"roll\":0.007200026419013739,\"rollspeed\":0.0001503654639236629,\"time_boot_ms\":90517,\"type\":\"ATTITUDE\",\"yaw\":2.6556785106658936,\"yawspeed\":0.000364543404430151},\"protocol_version\":{\"type\":\"V2\"}}"},"target":"network"}
{"timestamp":"2024-02-11T12:54:31.015702Z","level":"DEBUG","fields":{"message":"Send to network","driver":"udp_driver"},"target":"main"}
{"timestamp":"2024-02-11T12:54:31.016135Z","level":"DEBUG","fields":{"message":"Sending packet","driver":"udp_driver","json_packet":"{\"header\":{\"component_id\":1,\"sequence\":3,\"system_id\":201},\"msg\":{\"autopilot\":{\"type\":\"MAV_AUTOPILOT_INVALID\"},\"base_mode\":{\"bits\":0},\"custom_mode\":0,\"mavlink_version\":3,\"mavtype\":{\"type\":\"MAV_TYPE_GCS\"},\"system_status\":{\"type\":\"MAV_STATE_UNINIT\"},\"type\":\"HEARTBEAT\"},\"protocol_version\":{\"type\":\"V2\"}}"},"target":"network"}
{"timestamp":"2024-02-11T12:54:31.064224Z","level":"DEBUG","fields":{"message":"Received packet","driver":"udp_driver","json_packet":"{\"header\":{\"component_id\":1,\"sequence\":194,\"system_id\":1},\"msg\":{\"pitch\":0.0003588234249036759,\"pitchspeed\":-0.0003249524161219597,\"roll\":0.007205928675830364,\"rollspeed\":-0.0001441122149117291,\"time_boot_ms\":90616,\"type\":\"ATTITUDE\",\"yaw\":2.6556904315948486,\"yawspeed\":0.0001514451578259468},\"protocol_version\":{\"type\":\"V2\"}}"},"target":"network"}
{"timestamp":"2024-02-11T12:54:31.163316Z","level":"DEBUG","fields":{"message":"Received packet","driver":"udp_driver","json_packet":"{\"header\":{\"component_id\":1,\"sequence\":195,\"system_id\":1},\"msg\":{\"pitch\":0.0003634330350905657,\"pitchspeed\":-0.0001232316717505455,\"roll\":0.007202919106930494,\"rollspeed\":-0.00020547985332086682,\"time_boot_ms\":90715,\"type\":\"ATTITUDE\",\"yaw\":2.655688762664795,\"yawspeed\":-0.0008510053157806396},\"protocol_version\":{\"type\":\"V2\"}}"},"target":"network"}
{"timestamp":"2024-02-11T12:54:31.263418Z","level":"DEBUG","fields":{"message":"Received packet","driver":"udp_driver","json_packet":"{\"header\":{\"component_id\":1,\"sequence\":196,\"system_id\":1},\"msg\":{\"pitch\":0.000359921163180843,\"pitchspeed\":0.0003787274472415447,\"roll\":0.007212355267256498,\"rollspeed\":-0.00033911626087501645,\"time_boot_ms\":90814,\"type\":\"ATTITUDE\",\"yaw\":2.655663013458252,\"yawspeed\":-0.0002701757475733757},\"protocol_version\":{\"type\":\"V2\"}}"},"target":"network"}
{"timestamp":"2024-02-11T12:54:31.363669Z","level":"DEBUG","fields":{"message":"Received packet","driver":"udp_driver","json_packet":"{\"header\":{\"component_id\":1,\"sequence\":197,\"system_id\":1},\"msg\":{\"pitch\":0.0003464322944637388,\"pitchspeed\":2.7641654014587402e-6,\"roll\":0.007212276104837656,\"rollspeed\":-0.0005714335129596293,\"time_boot_ms\":90918,\"type\":\"ATTITUDE\",\"yaw\":2.6556639671325684,\"yawspeed\":-0.00011753896251320839},\"protocol_version\":{\"type\":\"V2\"}}"},"target":"network"}
{"timestamp":"2024-02-11T12:54:31.465696Z","level":"DEBUG","fields":{"message":"Received packet","driver":"udp_driver","json_packet":"{\"header\":{\"component_id\":1,\"sequence\":198,\"system_id\":1},\"msg\":{\"pitch\":0.00035740589373745024,\"pitchspeed\":0.0007186685688793659,\"roll\":0.00721435621380806,\"rollspeed\":-0.00040217587957158685,\"time_boot_ms\":91017,\"type\":\"ATTITUDE\",\"yaw\":2.6556737422943115,\"yawspeed\":-0.0003687501884996891},\"protocol_version\":{\"type\":\"V2\"}}"},"target":"network"}
{"timestamp":"2024-02-11T12:54:31.564833Z","level":"DEBUG","fields":{"message":"Received packet","driver":"udp_driver","json_packet":"{\"header\":{\"component_id\":1,\"sequence\":199,\"system_id\":1},\"msg\":{\"pitch\":0.0003607577527873218,\"pitchspeed\":0.0003350009210407734,\"roll\":0.007223363034427166,\"rollspeed\":0.00024157942971214652,\"time_boot_ms\":91116,\"type\":\"ATTITUDE\",\"yaw\":2.6556878089904785,\"yawspeed\":-0.0003734384663403034},\"protocol_version\":{\"type\":\"V2\"}}"},"target":"network"}
{"timestamp":"2024-02-11T12:54:31.616569Z","level":"DEBUG","fields":{"message":"Received packet","driver":"udp_driver","json_packet":"{\"header\":{\"component_id\":1,\"sequence\":200,\"system_id\":1},\"msg\":{\"autopilot\":{\"type\":\"MAV_AUTOPILOT_PX4\"},\"base_mode\":{\"bits\":29},\"custom_mode\":50593792,\"mavlink_version\":3,\"mavtype\":{\"type\":\"MAV_TYPE_QUADROTOR\"},\"system_status\":{\"type\":\"MAV_STATE_STANDBY\"},\"type\":\"HEARTBEAT\"},\"protocol_version\":{\"type\":\"V2\"}}"},"target":"network"}
{"timestamp":"2024-02-11T12:54:31.616860Z","level":"DEBUG","fields":{"message":"Send to main","driver":"udp_driver"},"target":"network"}
{"timestamp":"2024-02-11T12:54:31.617335Z","level":"DEBUG","fields":{"message":"close","time.busy":"16.9µs","time.idle":"736ms"},"target":"mavlink_network_node::network::lora_network_interface","span":{"driver":"lora_driver","target":"network","name":"Wait For IRQ"},"spans":[]}
{"timestamp":"2024-02-11T12:54:31.632980Z","level":"DEBUG","fields":{"message":"close","time.busy":"15.5ms","time.idle":"23.9µs"},"target":"network","span":{"driver":"lora_driver","name":"Prepare For TX"},"spans":[]}
{"timestamp":"2024-02-11T12:54:31.664122Z","level":"DEBUG","fields":{"message":"Received packet","driver":"udp_driver","json_packet":"{\"header\":{\"component_id\":1,\"sequence\":201,\"system_id\":1},\"msg\":{\"pitch\":0.0003761873231269419,\"pitchspeed\":0.00029271747916936874,\"roll\":0.007213279139250517,\"rollspeed\":-4.4396729208528996e-6,\"time_boot_ms\":91215,\"type\":\"ATTITUDE\",\"yaw\":2.655696392059326,\"yawspeed\":-0.0003658682107925415},\"protocol_version\":{\"type\":\"V2\"}}"},"target":"network"}
{"timestamp":"2024-02-11T12:54:31.682081Z","level":"DEBUG","fields":{"message":"Sending packet","driver":"lora_driver","json_packet":"{\"header\":{\"component_id\":1,\"sequence\":200,\"system_id\":1},\"msg\":{\"autopilot\":{\"type\":\"MAV_AUTOPILOT_PX4\"},\"base_mode\":{\"bits\":29},\"custom_mode\":50593792,\"mavlink_version\":3,\"mavtype\":{\"type\":\"MAV_TYPE_QUADROTOR\"},\"system_status\":{\"type\":\"MAV_STATE_STANDBY\"},\"type\":\"HEARTBEAT\"},\"protocol_version\":{\"type\":\"V2\"}}"},"target":"network","span":{"driver":"lora_driver","name":"Transmitting"},"spans":[{"driver":"lora_driver","name":"Transmitting"}]}
{"timestamp":"2024-02-11T12:54:31.683082Z","level":"DEBUG","fields":{"message":"close","time.busy":"28.5ms","time.idle":"21.5ms"},"target":"network","span":{"driver":"lora_driver","name":"Transmitting"},"spans":[]}
{"timestamp":"2024-02-11T12:54:31.718088Z","level":"DEBUG","fields":{"message":"close","time.busy":"31.7ms","time.idle":"23.8µs"},"target":"network","span":{"driver":"lora_driver","name":"Prepare For RX"},"spans":[]}
{"timestamp":"2024-02-11T12:54:31.755153Z","level":"DEBUG","fields":{"message":"close","time.busy":"15.3µs","time.idle":"36.9ms"},"target":"mavlink_network_node::network::lora_network_interface","span":{"driver":"lora_driver","target":"network","name":"Wait For IRQ"},"spans":[]}
{"timestamp":"2024-02-11T12:54:31.766139Z","level":"DEBUG","fields":{"message":"Received packet","driver":"udp_driver","json_packet":"{\"header\":{\"component_id\":1,\"sequence\":202,\"system_id\":1},\"msg\":{\"pitch\":0.00037838114076294005,\"pitchspeed\":0.0006687927525490522,\"roll\":0.0072206780314445496,\"rollspeed\":-0.0001601325930096209,\"time_boot_ms\":91319,\"type\":\"ATTITUDE\",\"yaw\":2.655695915222168,\"yawspeed\":-0.00043931929394602776},\"protocol_version\":{\"type\":\"V2\"}}"},"target":"network"}
{"timestamp":"2024-02-11T12:54:31.766614Z","level":"DEBUG","fields":{"message":"Received packet","driver":"udp_driver","json_packet":"{\"header\":{\"component_id\":1,\"sequence\":203,\"system_id\":1},\"msg\":{\"airspeed\":0.0,\"alt\":316.0980529785156,\"climb\":0.0051142629235982895,\"groundspeed\":0.0023488851729780436,\"heading\":152,\"throttle\":0,\"type\":\"VFR_HUD\"},\"protocol_version\":{\"type\":\"V2\"}}"},"target":"network"}
{"timestamp":"2024-02-11T12:54:31.767427Z","level":"DEBUG","fields":{"message":"Received packet","driver":"udp_driver","json_packet":"{\"header\":{\"component_id\":1,\"sequence\":204,\"system_id\":1},\"msg\":{\"messages_lost\":0,\"messages_received\":4,\"messages_sent\":56,\"rx_buf\":0,\"rx_overflows\":0,\"rx_parse_err\":0,\"rx_rate\":20,\"timestamp\":91320946,\"tx_buf\":0,\"tx_overflows\":0,\"tx_rate\":627,\"type\":\"LINK_NODE_STATUS\"},\"protocol_version\":{\"type\":\"V2\"}}"},"target":"network"}
{"timestamp":"2024-02-11T12:54:31.768265Z","level":"DEBUG","fields":{"message":"Send to main","driver":"udp_driver"},"target":"network"}
{"timestamp":"2024-02-11T12:54:31.774542Z","level":"DEBUG","fields":{"message":"close","time.busy":"18.2ms","time.idle":"26.1µs"},"target":"mavlink_network_node::network::lora_network_interface","span":{"driver":"lora_driver","target":"network","name":"Receiving"},"spans":[]}
{"timestamp":"2024-02-11T12:54:31.774742Z","level":"DEBUG","fields":{"message":"Received packet","driver":"lora_driver","rssi":-72,"json_packet":"{\"header\":{\"component_id\":190,\"sequence\":16,\"system_id\":255},\"msg\":{\"autopilot\":{\"type\":\"MAV_AUTOPILOT_INVALID\"},\"base_mode\":{\"bits\":192},\"custom_mode\":0,\"mavlink_version\":3,\"mavtype\":{\"type\":\"MAV_TYPE_GCS\"},\"system_status\":{\"type\":\"MAV_STATE_ACTIVE\"},\"type\":\"HEARTBEAT\"},\"protocol_version\":{\"type\":\"V2\"}}"},"target":"network"}
{"timestamp":"2024-02-11T12:54:31.775025Z","level":"DEBUG","fields":{"message":"Send to main","driver":"lora_driver"},"target":"network"}
{"timestamp":"2024-02-11T12:54:31.807617Z","level":"DEBUG","fields":{"message":"close","time.busy":"32.4ms","time.idle":"20.7µs"},"target":"network","span":{"driver":"lora_driver","name":"Prepare For RX"},"spans":[]}
{"timestamp":"2024-02-11T12:54:31.807788Z","level":"DEBUG","fields":{"message":"close","time.busy":"8.49µs","time.idle":"27.0µs"},"target":"mavlink_network_node::network::lora_network_interface","span":{"driver":"lora_driver","target":"network","name":"Wait For IRQ"},"spans":[]}
{"timestamp":"2024-02-11T12:54:31.807840Z","level":"DEBUG","fields":{"message":"Sending packet","driver":"udp_driver","json_packet":"{\"header\":{\"component_id\":190,\"sequence\":16,\"system_id\":255},\"msg\":{\"autopilot\":{\"type\":\"MAV_AUTOPILOT_INVALID\"},\"base_mode\":{\"bits\":192},\"custom_mode\":0,\"mavlink_version\":3,\"mavtype\":{\"type\":\"MAV_TYPE_GCS\"},\"system_status\":{\"type\":\"MAV_STATE_ACTIVE\"},\"type\":\"HEARTBEAT\"},\"protocol_version\":{\"type\":\"V2\"}}"},"target":"network"}
{"timestamp":"2024-02-11T12:54:31.823304Z","level":"DEBUG","fields":{"message":"close","time.busy":"15.4ms","time.idle":"16.4µs"},"target":"network","span":{"driver":"lora_driver","name":"Prepare For TX"},"spans":[]}
{"timestamp":"2024-02-11T12:54:31.865227Z","level":"DEBUG","fields":{"message":"Received packet","driver":"udp_driver","json_packet":"{\"header\":{\"component_id\":1,\"sequence\":205,\"system_id\":1},\"msg\":{\"pitch\":0.0003998255997430533,\"pitchspeed\":0.00041062943637371063,\"roll\":0.007221875712275505,\"rollspeed\":-0.00026070704916492105,\"time_boot_ms\":91418,\"type\":\"ATTITUDE\",\"yaw\":2.6557042598724365,\"yawspeed\":-0.00006235437467694283},\"protocol_version\":{\"type\":\"V2\"}}"},"target":"network"}
{"timestamp":"2024-02-11T12:54:31.887778Z","level":"DEBUG","fields":{"message":"Sending packet","driver":"lora_driver","json_packet":"{\"header\":{\"component_id\":1,\"sequence\":204,\"system_id\":1},\"msg\":{\"messages_lost\":0,\"messages_received\":4,\"messages_sent\":56,\"rx_buf\":0,\"rx_overflows\":0,\"rx_parse_err\":0,\"rx_rate\":20,\"timestamp\":91320946,\"tx_buf\":0,\"tx_overflows\":0,\"tx_rate\":627,\"type\":\"LINK_NODE_STATUS\"},\"protocol_version\":{\"type\":\"V2\"}}"},"target":"network","span":{"driver":"lora_driver","name":"Transmitting"},"spans":[{"driver":"lora_driver","name":"Transmitting"}]}
{"timestamp":"2024-02-11T12:54:31.888109Z","level":"DEBUG","fields":{"message":"close","time.busy":"33.0ms","time.idle":"31.7ms"},"target":"network","span":{"driver":"lora_driver","name":"Transmitting"},"spans":[]}
{"timestamp":"2024-02-11T12:54:31.922782Z","level":"DEBUG","fields":{"message":"close","time.busy":"31.3ms","time.idle":"20.8µs"},"target":"network","span":{"driver":"lora_driver","name":"Prepare For RX"},"spans":[]}
{"timestamp":"2024-02-11T12:54:31.964612Z","level":"DEBUG","fields":{"message":"Received packet","driver":"udp_driver","json_packet":"{\"header\":{\"component_id\":1,\"sequence\":206,\"system_id\":1},\"msg\":{\"pitch\":0.0004084687680006027,\"pitchspeed\":0.0002686609514057636,\"roll\":0.007214744109660387,\"rollspeed\":-0.0005127592594362795,\"time_boot_ms\":91517,\"type\":\"ATTITUDE\",\"yaw\":2.655674457550049,\"yawspeed\":-0.0005768504925072193},\"protocol_version\":{\"type\":\"V2\"}}"},"target":"network"}
{"timestamp":"2024-02-11T12:54:32.017087Z","level":"DEBUG","fields":{"message":"Send to network","driver":"udp_driver"},"target":"main"}
{"timestamp":"2024-02-11T12:54:32.017516Z","level":"DEBUG","fields":{"message":"Sending packet","driver":"udp_driver","json_packet":"{\"header\":{\"component_id\":1,\"sequence\":4,\"system_id\":201},\"msg\":{\"autopilot\":{\"type\":\"MAV_AUTOPILOT_INVALID\"},\"base_mode\":{\"bits\":0},\"custom_mode\":0,\"mavlink_version\":3,\"mavtype\":{\"type\":\"MAV_TYPE_GCS\"},\"system_status\":{\"type\":\"MAV_STATE_UNINIT\"},\"type\":\"HEARTBEAT\"},\"protocol_version\":{\"type\":\"V2\"}}"},"target":"network"}
{"timestamp":"2024-02-11T12:54:32.066935Z","level":"DEBUG","fields":{"message":"Received packet","driver":"udp_driver","json_packet":"{\"header\":{\"component_id\":1,\"sequence\":207,\"system_id\":1},\"msg\":{\"pitch\":0.0003978585882578045,\"pitchspeed\":0.00025057652965188026,\"roll\":0.007212433032691479,\"rollspeed\":0.0005761384381912649,\"time_boot_ms\":91616,\"type\":\"ATTITUDE\",\"yaw\":2.655673027038574,\"yawspeed\":-0.0003027697093784809},\"protocol_version\":{\"type\":\"V2\"}}"},"target":"network"}
{"timestamp":"2024-02-11T12:54:32.165752Z","level":"DEBUG","fields":{"message":"Received packet","driver":"udp_driver","json_packet":"{\"header\":{\"component_id\":1,\"sequence\":208,\"system_id\":1},\"msg\":{\"pitch\":0.00038825743831694126,\"pitchspeed\":0.00008319411426782608,\"roll\":0.007207980379462242,\"rollspeed\":-0.00016177265206351876,\"time_boot_ms\":91715,\"type\":\"ATTITUDE\",\"yaw\":2.6556589603424072,\"yawspeed\":-0.0003100601024925709},\"protocol_version\":{\"type\":\"V2\"}}"},"target":"network"}
{"timestamp":"2024-02-11T12:54:32.265793Z","level":"DEBUG","fields":{"message":"Received packet","driver":"udp_driver","json_packet":"{\"header\":{\"component_id\":1,\"sequence\":209,\"system_id\":1},\"msg\":{\"pitch\":0.00040374830132350326,\"pitchspeed\":0.00018221139907836914,\"roll\":0.007189756724983454,\"rollspeed\":-0.0005322052747942507,\"time_boot_ms\":91819,\"type\":\"ATTITUDE\",\"yaw\":2.6556379795074463,\"yawspeed\":-0.0003270893357694149},\"protocol_version\":{\"type\":\"V2\"}}"},"target":"network"}
{"timestamp":"2024-02-11T12:54:32.365923Z","level":"DEBUG","fields":{"message":"Received packet","driver":"udp_driver","json_packet":"{\"header\":{\"component_id\":1,\"sequence\":210,\"system_id\":1},\"msg\":{\"pitch\":0.0004063199448864907,\"pitchspeed\":0.0003232413437217474,\"roll\":0.007177261169999838,\"rollspeed\":0.00007398659363389015,\"time_boot_ms\":91918,\"type\":\"ATTITUDE\",\"yaw\":2.6556191444396973,\"yawspeed\":-0.0002944241277873516},\"protocol_version\":{\"type\":\"V2\"}}"},"target":"network"}
{"timestamp":"2024-02-11T12:54:32.467278Z","level":"DEBUG","fields":{"message":"Received packet","driver":"udp_driver","json_packet":"{\"header\":{\"component_id\":1,\"sequence\":211,\"system_id\":1},\"msg\":{\"pitch\":0.0003988084790762514,\"pitchspeed\":0.00006940867751836777,\"roll\":0.007187810260802507,\"rollspeed\":-0.0002207658253610134,\"time_boot_ms\":92017,\"type\":\"ATTITUDE\",\"yaw\":2.655604839324951,\"yawspeed\":0.00002125650644302368},\"protocol_version\":{\"type\":\"V2\"}}"},"target":"network"}
{"timestamp":"2024-02-11T12:54:32.543152Z","level":"DEBUG","fields":{"message":"Received packet","driver":"udp_driver","json_packet":"{\"header\":{\"component_id\":1,\"sequence\":212,\"system_id\":1},\"msg\":{\"flags\":{\"bits\":0},\"sequence\":16,\"type\":\"CURRENT_EVENT_SEQUENCE\"},\"protocol_version\":{\"type\":\"V2\"}}"},"target":"network"}
{"timestamp":"2024-02-11T12:54:32.543535Z","level":"DEBUG","fields":{"message":"Send to main","driver":"udp_driver"},"target":"network"}
{"timestamp":"2024-02-11T12:54:32.543862Z","level":"DEBUG","fields":{"message":"close","time.busy":"14.7µs","time.idle":"621ms"},"target":"mavlink_network_node::network::lora_network_interface","span":{"driver":"lora_driver","target":"network","name":"Wait For IRQ"},"spans":[]}
{"timestamp":"2024-02-11T12:54:32.559483Z","level":"DEBUG","fields":{"message":"close","time.busy":"15.5ms","time.idle":"23.6µs"},"target":"network","span":{"driver":"lora_driver","name":"Prepare For TX"},"spans":[]}
{"timestamp":"2024-02-11T12:54:32.567290Z","level":"DEBUG","fields":{"message":"Received packet","driver":"udp_driver","json_packet":"{\"header\":{\"component_id\":1,\"sequence\":213,\"system_id\":1},\"msg\":{\"pitch\":0.00041241670260205865,\"pitchspeed\":0.0002745341043919325,\"roll\":0.007189030759036541,\"rollspeed\":-0.0003579328767955303,\"time_boot_ms\":92116,\"type\":\"ATTITUDE\",\"yaw\":2.6556169986724854,\"yawspeed\":-0.000059013254940509796},\"protocol_version\":{\"type\":\"V2\"}}"},"target":"network"}
{"timestamp":"2024-02-11T12:54:32.599874Z","level":"DEBUG","fields":{"message":"Sending packet","driver":"lora_driver","json_packet":"{\"header\":{\"component_id\":1,\"sequence\":212,\"system_id\":1},\"msg\":{\"flags\":{\"bits\":0},\"sequence\":16,\"type\":\"CURRENT_EVENT_SEQUENCE\"},\"protocol_version\":{\"type\":\"V2\"}}"},"target":"network","span":{"driver":"lora_driver","name":"Transmitting"},"spans":[{"driver":"lora_driver","name":"Transmitting"}]}
{"timestamp":"2024-02-11T12:54:32.601332Z","level":"DEBUG","fields":{"message":"close","time.busy":"25.4ms","time.idle":"16.3ms"},"target":"network","span":{"driver":"lora_driver","name":"Transmitting"},"spans":[]}
{"timestamp":"2024-02-11T12:54:32.636438Z","level":"DEBUG","fields":{"message":"close","time.busy":"31.8ms","time.idle":"26.1µs"},"target":"network","span":{"driver":"lora_driver","name":"Prepare For RX"},"spans":[]}
{"timestamp":"2024-02-11T12:54:32.636707Z","level":"DEBUG","fields":{"message":"Received packet","driver":"udp_driver","json_packet":"{\"header\":{\"component_id\":1,\"sequence\":214,\"system_id\":1},\"msg\":{\"autopilot\":{\"type\":\"MAV_AUTOPILOT_PX4\"},\"base_mode\":{\"bits\":29},\"custom_mode\":50593792,\"mavlink_version\":3,\"mavtype\":{\"type\":\"MAV_TYPE_QUADROTOR\"},\"system_status\":{\"type\":\"MAV_STATE_STANDBY\"},\"type\":\"HEARTBEAT\"},\"protocol_version\":{\"type\":\"V2\"}}"},"target":"network"}
{"timestamp":"2024-02-11T12:54:32.638327Z","level":"DEBUG","fields":{"message":"Send to main","driver":"udp_driver"},"target":"network"}
{"timestamp":"2024-02-11T12:54:32.639760Z","level":"DEBUG","fields":{"message":"close","time.busy":"13.6µs","time.idle":"3.17ms"},"target":"mavlink_network_node::network::lora_network_interface","span":{"driver":"lora_driver","target":"network","name":"Wait For IRQ"},"spans":[]}
{"timestamp":"2024-02-11T12:54:32.655374Z","level":"DEBUG","fields":{"message":"close","time.busy":"15.5ms","time.idle":"22.3µs"},"target":"network","span":{"driver":"lora_driver","name":"Prepare For TX"},"spans":[]}
{"timestamp":"2024-02-11T12:54:32.665430Z","level":"DEBUG","fields":{"message":"Received packet","driver":"udp_driver","json_packet":"{\"header\":{\"component_id\":1,\"sequence\":215,\"system_id\":1},\"msg\":{\"pitch\":0.00041933212196454406,\"pitchspeed\":0.00012118439190089703,\"roll\":0.007179964799433947,\"rollspeed\":-0.0004467037506401539,\"time_boot_ms\":92215,\"type\":\"ATTITUDE\",\"yaw\":2.6556403636932373,\"yawspeed\":-0.0005438951775431633},\"protocol_version\":{\"type\":\"V2\"}}"},"target":"network"}
{"timestamp":"2024-02-11T12:54:32.704417Z","level":"DEBUG","fields":{"message":"Sending packet","driver":"lora_driver","json_packet":"{\"header\":{\"component_id\":1,\"sequence\":214,\"system_id\":1},\"msg\":{\"autopilot\":{\"type\":\"MAV_AUTOPILOT_PX4\"},\"base_mode\":{\"bits\":29},\"custom_mode\":50593792,\"mavlink_version\":3,\"mavtype\":{\"type\":\"MAV_TYPE_QUADROTOR\"},\"system_status\":{\"type\":\"MAV_STATE_STANDBY\"},\"type\":\"HEARTBEAT\"},\"protocol_version\":{\"type\":\"V2\"}}"},"target":"network","span":{"driver":"lora_driver","name":"Transmitting"},"spans":[{"driver":"lora_driver","name":"Transmitting"}]}
{"timestamp":"2024-02-11T12:54:32.706413Z","level":"DEBUG","fields":{"message":"close","time.busy":"29.5ms","time.idle":"21.4ms"},"target":"network","span":{"driver":"lora_driver","name":"Transmitting"},"spans":[]}
